X,Y,NAME,STATION_TYPE,STATION_ID,STATION_STATUS,LAST_REPORTED,NUM_DOCKS_AVAILABLE,NUM_DOCKS_DISABLED,NUM_BIKES_AVAILABLE,NUM_EBIKES_AVAILABLE,NUM_BIKES_DISABLED,IS_INSTALLED,IS_RETURNING,IS_RENTING,HAS_KIOSK,IOS,ANDROID,ELECTRIC_BIKE_SURCHARGE_WAIVER,EIGHTD_HAS_KEY_DISPENSER,CAPACITY,RENTAL_METHODS,REGION_ID,REGION_NAME,GIS_ID,LATITUDE,LONGITUDE,GIS_LAST_MOD_DTTM,OBJECTID
-77.0575320544835,38.9336370340416,Connecticut Ave & Macomb St NW / Cleveland Park,classic,08247f59-1f3f-11e7-bf6b-3863bb334450,,2023/12/01 10:50:42+00,2,0,10,3,0,YES,YES,YES,YES,https://dc.lft.to/lastmile_qr_scan,https://dc.lft.to/lastmile_qr_scan,NO,NO,11,"KEY,CREDITCARD",42,DCA-CABI,,38.933626,-77.05753,2023/12/01 10:52:27+00,146014905
-77.0892322957314,38.8737655987281,Arlington Blvd & Fillmore St,classic,0825bbc6-1f3f-11e7-bf6b-3863bb334450,,2023/12/01 10:50:41+00,7,0,4,1,0,YES,YES,YES,YES,https://dc.lft.to/lastmile_qr_scan,https://dc.lft.to/lastmile_qr_scan,NO,NO,11,"KEY,CREDITCARD",41,DCA-CABI,,38.873755,-77.089233,2023/12/01 10:52:27+00,146014906
-77.0837095214756,38.9303241748294,New Mexico & Cathedral Ave NW,classic,1884993950171398452,,2023/12/01 10:51:06+00,19,0,0,0,0,YES,YES,YES,YES,https://dc.lft.to/lastmile_qr_scan,https://dc.lft.to/lastmile_qr_scan,NO,NO,19,"KEY,CREDITCARD",,DCA-CABI,,38.930316,-77.083704,2023/12/01 10:52:27+00,146014907
-77.2359604523307,38.9240353227432,Westpark Dr & Leesburg Pike,classic,082634c6-1f3f-11e7-bf6b-3863bb334450,,2023/12/01 10:50:55+00,7,0,4,2,0,YES,YES,YES,YES,https://dc.lft.to/lastmile_qr_scan,https://dc.lft.to/lastmile_qr_scan,NO,NO,11,"KEY,CREDITCARD",104,DCA-CABI,,38.92403,-77.235955,2023/12/01 10:52:27+00,146014908
-77.1168142571781,38.8839297672597,Glebe Rd & 11th St N,classic,082528fb-1f3f-11e7-bf6b-3863bb334450,,2023/12/01 10:49:58+00,4,0,8,1,0,YES,YES,YES,YES,https://dc.lft.to/lastmile_qr_scan,https://dc.lft.to/lastmile_qr_scan,NO,NO,12,"KEY,CREDITCARD",41,DCA-CABI,,38.883921,-77.116817,2023/12/01 10:52:27+00,146014909
-76.9823598613978,38.8706994686156,16th & Q St SE / Anacostia HS,classic,082633ec-1f3f-11e7-bf6b-3863bb334450,,2023/12/01 10:49:59+00,21,0,2,0,0,YES,YES,YES,YES,https://dc.lft.to/lastmile_qr_scan,https://dc.lft.to/lastmile_qr_scan,NO,NO,23,"KEY,CREDITCARD",42,DCA-CABI,,38.870695,-76.982359,2023/12/01 10:52:27+00,146014910
-77.0785718594117,38.8939970918288,Wilson Blvd & N Quinn St,classic,08251e7d-1f3f-11e7-bf6b-3863bb334450,,2023/12/01 10:50:51+00,10,0,7,6,0,YES,YES,YES,YES,https://dc.lft.to/lastmile_qr_scan,https://dc.lft.to/lastmile_qr_scan,NO,NO,17,"KEY,CREDITCARD",41,DCA-CABI,,38.893993,-77.07857,2023/12/01 10:52:27+00,146014911
-77.0859964034746,38.9617704442885,Friendship Hts Metro / Wisconsin Ave & Wisconsin Cir,classic,08258b3f-1f3f-11e7-bf6b-3863bb334450,,2023/12/01 10:49:53+00,12,0,5,3,1,YES,YES,YES,YES,https://dc.lft.to/lastmile_qr_scan,https://dc.lft.to/lastmile_qr_scan,NO,NO,19,"KEY,CREDITCARD",44,DCA-CABI,,38.961763,-77.085998,2023/12/01 10:52:27+00,146014912
-77.0498877425738,38.8053247875046,King St & Patrick St,classic,08253ab7-1f3f-11e7-bf6b-3863bb334450,,2023/12/01 10:51:05+00,6,0,9,4,0,YES,YES,YES,YES,https://dc.lft.to/lastmile_qr_scan,https://dc.lft.to/lastmile_qr_scan,NO,NO,15,"KEY,CREDITCARD",40,DCA-CABI,,38.805317,-77.049883,2023/12/01 10:52:27+00,146014913
-77.1292390591566,39.0621987668258,Congressional Ln & E Jefferson St,classic,305ce636-23c1-42f3-a28b-8be4feca2e05,,2023/12/01 10:50:45+00,4,0,11,1,0,YES,YES,YES,YES,https://dc.lft.to/lastmile_qr_scan,https://dc.lft.to/lastmile_qr_scan,NO,NO,15,"KEY,CREDITCARD",43,DCA-CABI,,39.06219,-77.129235,2023/12/01 10:52:27+00,146014914
-77.0428988818543,38.9003034793682,19th St & Pennsylvania Ave NW,classic,0824741d-1f3f-11e7-bf6b-3863bb334450,,2023/12/01 10:51:01+00,9,0,5,2,1,YES,YES,YES,YES,https://dc.lft.to/lastmile_qr_scan,https://dc.lft.to/lastmile_qr_scan,NO,NO,15,"KEY,CREDITCARD",42,DCA-CABI,,38.9003,-77.0429,2023/12/01 10:52:27+00,146014915
-77.0082452269337,38.9024550546536,North Capitol & K St NE,classic,7995da4d-4d99-4797-bb9f-37a51a28cc09,,2023/12/01 10:49:59+00,1,0,18,1,0,YES,YES,YES,YES,https://dc.lft.to/lastmile_qr_scan,https://dc.lft.to/lastmile_qr_scan,NO,NO,19,"KEY,CREDITCARD",42,DCA-CABI,,38.902444,-77.008246,2023/12/01 10:52:27+00,146014916
-77.1071447477926,39.0147212704552,Pooks Hill Rd & Linden Ave,classic,08264525-1f3f-11e7-bf6b-3863bb334450,,2023/12/01 10:49:59+00,10,0,5,0,0,YES,YES,YES,YES,https://dc.lft.to/lastmile_qr_scan,https://dc.lft.to/lastmile_qr_scan,NO,NO,15,"KEY,CREDITCARD",44,DCA-CABI,,39.014716,-77.107143,2023/12/01 10:52:27+00,146014917
-77.0021688789852,38.8768264936278,3rd & M St SE,classic,60e5f9b2-611b-4713-b34a-8ce2c2ee8ac8,,2023/12/01 10:50:04+00,12,0,10,2,1,YES,YES,YES,YES,https://dc.lft.to/lastmile_qr_scan,https://dc.lft.to/lastmile_qr_scan,NO,NO,23,"KEY,CREDITCARD",42,DCA-CABI,,38.876823,-77.002161,2023/12/01 10:52:27+00,146014918
-77.0271696472001,38.9182077793669,11th & V St NW,classic,c361d993-ebd8-4110-b10e-6bd2055fbe05,,2023/12/01 10:50:02+00,18,0,0,0,0,YES,YES,YES,YES,https://dc.lft.to/lastmile_qr_scan,https://dc.lft.to/lastmile_qr_scan,NO,NO,18,"KEY,CREDITCARD",42,DCA-CABI,,38.918199,-77.027171,2023/12/01 10:52:27+00,146014919
-77.2054359977207,38.9003829574093,Pimmit Dr & Los Pueblos Ln,classic,39d08937-66b3-4fd8-89d0-49e5144f1922,,2023/12/01 10:50:00+00,6,0,6,1,0,YES,YES,YES,YES,https://dc.lft.to/lastmile_qr_scan,https://dc.lft.to/lastmile_qr_scan,NO,NO,12,"KEY,CREDITCARD",104,DCA-CABI,,38.900371,-77.205428,2023/12/01 10:52:27+00,146014920
-77.0534844560023,38.9038303890178,25th St & Pennsylvania Ave NW,classic,0824cfe7-1f3f-11e7-bf6b-3863bb334450,,2023/12/01 10:50:01+00,5,0,10,0,0,YES,YES,YES,YES,https://dc.lft.to/lastmile_qr_scan,https://dc.lft.to/lastmile_qr_scan,NO,NO,15,"KEY,CREDITCARD",42,DCA-CABI,,38.903827,-77.053485,2023/12/01 10:52:27+00,146014921
-77.2176717790151,38.9244491693927,Westpark & Jones Branch Dr,classic,0826366d-1f3f-11e7-bf6b-3863bb334450,,2023/12/01 10:50:51+00,2,0,9,2,0,YES,YES,YES,YES,https://dc.lft.to/lastmile_qr_scan,https://dc.lft.to/lastmile_qr_scan,NO,NO,11,"KEY,CREDITCARD",104,DCA-CABI,,38.924437,-77.217664,2023/12/01 10:52:27+00,146014922
-77.0346817365302,38.9054319626643,15th & M St NW,classic,7fcbf92d-a257-4973-828b-181d5602eee5,,2023/12/01 10:50:39+00,1,0,17,1,1,YES,YES,YES,YES,https://dc.lft.to/lastmile_qr_scan,https://dc.lft.to/lastmile_qr_scan,NO,NO,19,"KEY,CREDITCARD",42,DCA-CABI,,38.905424,-77.034674,2023/12/01 10:52:27+00,146014923
-76.9266002038717,38.8795870440756,Woody Ward Rec Center,classic,c51f0090-a4f9-416d-a18b-6e0505b1dca1,,2023/12/01 10:51:15+00,13,0,2,0,0,YES,YES,YES,YES,https://dc.lft.to/lastmile_qr_scan,https://dc.lft.to/lastmile_qr_scan,NO,NO,15,"KEY,CREDITCARD",42,DCA-CABI,,38.879575,-76.926596,2023/12/01 10:52:27+00,146014924
-77.0406262381331,38.917771475614,California St & Florida Ave NW,classic,082516c1-1f3f-11e7-bf6b-3863bb334450,,2023/12/01 10:51:18+00,16,0,1,0,0,YES,YES,YES,YES,https://dc.lft.to/lastmile_qr_scan,https://dc.lft.to/lastmile_qr_scan,NO,NO,19,"KEY,CREDITCARD",42,DCA-CABI,,38.917761,-77.04062,2023/12/01 10:52:27+00,146014925
-77.0478457642471,38.8334411169982,Potomac Yard Metro South,classic,1869388517211023780,,2023/12/01 10:50:05+00,5,0,10,0,0,YES,YES,YES,YES,https://dc.lft.to/lastmile_qr_scan,https://dc.lft.to/lastmile_qr_scan,NO,NO,15,"KEY,CREDITCARD",,DCA-CABI,,38.833437,-77.047846,2023/12/01 10:52:27+00,146014926
-77.0256713873001,38.9203971420929,10th St & Florida Ave NW,classic,08259009-1f3f-11e7-bf6b-3863bb334450,,2023/12/01 10:51:06+00,17,0,2,1,0,YES,YES,YES,YES,https://dc.lft.to/lastmile_qr_scan,https://dc.lft.to/lastmile_qr_scan,NO,NO,19,"KEY,CREDITCARD",42,DCA-CABI,,38.920387,-77.025672,2023/12/01 10:52:27+00,146014927
-77.1093335327777,39.049004188511,Citadel Ave & McGrath Blvd,classic,97506e92-1d23-4396-8ec8-e1901ccc22fa,,2023/12/01 10:50:07+00,2,0,12,1,1,YES,YES,YES,YES,https://dc.lft.to/lastmile_qr_scan,https://dc.lft.to/lastmile_qr_scan,NO,NO,15,"KEY,CREDITCARD",43,DCA-CABI,,39.049,-77.10933,2023/12/01 10:52:27+00,146014928
-76.9783972766365,38.8657892191988,Anacostia Library,classic,0824980b-1f3f-11e7-bf6b-3863bb334450,,2023/12/01 10:50:08+00,7,0,4,2,0,YES,YES,YES,YES,https://dc.lft.to/lastmile_qr_scan,https://dc.lft.to/lastmile_qr_scan,NO,NO,11,"KEY,CREDITCARD",42,DCA-CABI,,38.865784,-76.9784,2023/12/01 10:52:27+00,146014929
-77.0395130985468,38.8650368325131,Gravelly Point,classic,08256742-1f3f-11e7-bf6b-3863bb334450,,2023/12/01 10:50:08+00,6,0,10,0,1,YES,YES,YES,YES,https://dc.lft.to/lastmile_qr_scan,https://dc.lft.to/lastmile_qr_scan,NO,NO,17,"KEY,CREDITCARD",41,DCA-CABI,,38.865029,-77.039511,2023/12/01 10:52:27+00,146014930
-77.0450060323721,38.8963119812627,20th & E St NW,classic,08247aa4-1f3f-11e7-bf6b-3863bb334450,,2023/12/01 10:50:08+00,12,0,3,0,0,YES,YES,YES,YES,https://dc.lft.to/lastmile_qr_scan,https://dc.lft.to/lastmile_qr_scan,NO,NO,15,"KEY,CREDITCARD",42,DCA-CABI,,38.8963,-77.045,2023/12/01 10:52:27+00,146014931
-77.059823614156,38.8330842618635,Mount Vernon Ave & Kennedy St,classic,0825fa22-1f3f-11e7-bf6b-3863bb334450,,2023/12/01 10:51:22+00,10,0,5,1,0,YES,YES,YES,YES,https://dc.lft.to/lastmile_qr_scan,https://dc.lft.to/lastmile_qr_scan,NO,NO,15,"KEY,CREDITCARD",40,DCA-CABI,,38.833077,-77.059821,2023/12/01 10:52:27+00,146014932
-77.0820860135494,38.8925623436231,Wilson Blvd & N Troy St,classic,d39e9b29-0ba7-453f-9f1e-b0a856d448b7,,2023/12/01 10:50:10+00,13,0,2,1,0,YES,YES,YES,YES,https://dc.lft.to/lastmile_qr_scan,https://dc.lft.to/lastmile_qr_scan,NO,NO,15,"KEY,CREDITCARD",41,DCA-CABI,,38.892556,-77.082089,2023/12/01 10:52:27+00,146014933
-77.0441024900751,38.8705663540975,Long Bridge Aquatic Center,classic,065defed-8e90-46b9-a106-28d590704cf8,,2023/12/01 10:51:18+00,10,0,2,0,0,YES,YES,YES,YES,https://dc.lft.to/lastmile_qr_scan,https://dc.lft.to/lastmile_qr_scan,NO,NO,12,"KEY,CREDITCARD",41,DCA-CABI,,38.870561,-77.044095,2023/12/01 10:52:27+00,146014934
-76.9858550064512,38.9110034133524,Capitol Ave & Kendall St NE,classic,336a1fe2-8e92-49ad-ab6a-c6c392d3edcd,,2023/12/01 10:50:55+00,5,0,14,0,0,YES,YES,YES,YES,https://dc.lft.to/lastmile_qr_scan,https://dc.lft.to/lastmile_qr_scan,NO,NO,19,"KEY,CREDITCARD",42,DCA-CABI,,38.910993,-76.985854,2023/12/01 10:52:27+00,146014935
-77.033352902347,38.8990364159272,15th St & New York Ave NW,classic,0824a43b-1f3f-11e7-bf6b-3863bb334450,,2023/12/01 10:50:11+00,10,0,12,6,1,YES,YES,YES,YES,https://dc.lft.to/lastmile_qr_scan,https://dc.lft.to/lastmile_qr_scan,NO,NO,23,"KEY,CREDITCARD",42,DCA-CABI,,38.899032,-77.033354,2023/12/01 10:52:27+00,146014936
-76.9131858603952,38.8885321827324,Capitol Heights Metro,classic,3dc3100e-7a4c-4d34-8b92-e820f1bd46a0,,2023/12/01 10:51:21+00,14,0,5,0,0,YES,YES,YES,YES,https://dc.lft.to/lastmile_qr_scan,https://dc.lft.to/lastmile_qr_scan,NO,NO,19,"KEY,CREDITCARD",133,DCA-CABI,,38.888524,-76.913188,2023/12/01 10:52:27+00,146014937
-76.9405467889001,39.0853245898231,Castle Blvd & Castle Ln,classic,804fb759-1127-4059-a67a-c1fdd5d98082,,2023/12/01 10:50:11+00,15,0,4,0,0,YES,YES,YES,YES,https://dc.lft.to/lastmile_qr_scan,https://dc.lft.to/lastmile_qr_scan,NO,NO,19,"KEY,CREDITCARD",44,DCA-CABI,,39.085314,-76.940547,2023/12/01 10:52:27+00,146014938
-76.9952306729751,38.8841051966687,Eastern Market Metro / Pennsylvania Ave & 8th St SE,classic,08249e81-1f3f-11e7-bf6b-3863bb334450,,2023/12/01 10:50:12+00,23,0,7,1,1,YES,YES,YES,YES,https://dc.lft.to/lastmile_qr_scan,https://dc.lft.to/lastmile_qr_scan,NO,NO,31,"KEY,CREDITCARD",42,DCA-CABI,,38.884095,-76.995234,2023/12/01 10:52:27+00,146014939
-77.0619790333855,38.9411476827106,Connecticut Ave & Tilden St NW,classic,0825c063-1f3f-11e7-bf6b-3863bb334450,,2023/12/01 10:50:49+00,1,0,12,0,1,YES,YES,YES,YES,https://dc.lft.to/lastmile_qr_scan,https://dc.lft.to/lastmile_qr_scan,NO,NO,15,"KEY,CREDITCARD",42,DCA-CABI,,38.941139,-77.061977,2023/12/01 10:52:27+00,146014940
-77.1033776051056,38.9649993416759,River Rd & Landy Ln,classic,0825e5ff-1f3f-11e7-bf6b-3863bb334450,,2023/12/01 10:51:13+00,13,0,6,1,0,YES,YES,YES,YES,https://dc.lft.to/lastmile_qr_scan,https://dc.lft.to/lastmile_qr_scan,NO,NO,19,"KEY,CREDITCARD",44,DCA-CABI,,38.964992,-77.103381,2023/12/01 10:52:27+00,146014941
-77.0262182845824,38.9024073615825,10th & K St NW,classic,08251d5a-1f3f-11e7-bf6b-3863bb334450,,2023/12/01 10:51:23+00,3,0,20,3,0,YES,YES,YES,YES,https://dc.lft.to/lastmile_qr_scan,https://dc.lft.to/lastmile_qr_scan,NO,NO,23,"KEY,CREDITCARD",42,DCA-CABI,,38.9024,-77.02622,2023/12/01 10:52:27+00,146014942
-77.1280127786647,38.8879177559137,Virginia Hospital Center,classic,5f060548-684b-469b-8825-66c80d77a874,,2023/12/01 10:50:13+00,8,0,7,2,0,YES,YES,YES,YES,https://dc.lft.to/lastmile_qr_scan,https://dc.lft.to/lastmile_qr_scan,NO,NO,15,"KEY,CREDITCARD",41,DCA-CABI,,38.887914,-77.128015,2023/12/01 10:52:27+00,146014943
-77.0332344615027,38.8922531486667,15th St & Constitution Ave NW,classic,99e66f13-6f03-4872-9f34-bcd92fe519fd,,2023/12/01 10:51:20+00,14,0,4,1,1,YES,YES,YES,YES,https://dc.lft.to/lastmile_qr_scan,https://dc.lft.to/lastmile_qr_scan,NO,NO,19,"KEY,CREDITCARD",42,DCA-CABI,,38.892244,-77.033234,2023/12/01 10:52:27+00,146014944
-77.0537732680695,38.7975667362703,Lee Center,classic,082625d9-1f3f-11e7-bf6b-3863bb334450,,2023/12/01 10:51:05+00,10,0,5,0,0,YES,YES,YES,YES,https://dc.lft.to/lastmile_qr_scan,https://dc.lft.to/lastmile_qr_scan,NO,NO,15,"KEY,CREDITCARD",40,DCA-CABI,,38.797557,-77.053766,2023/12/01 10:52:27+00,146014945
-76.8255360002701,38.8899475633723,Largo Rd & Campus Way / Prince Georges's Comm Col,classic,5945c731-a300-46e6-8e51-3236ad1f65f2,,2023/12/01 10:50:49+00,2,0,13,0,0,YES,YES,YES,YES,https://dc.lft.to/lastmile_qr_scan,https://dc.lft.to/lastmile_qr_scan,NO,NO,15,"KEY,CREDITCARD",133,DCA-CABI,,38.88994,-76.825535,2023/12/01 10:52:27+00,146014946
-76.9599014711346,38.8692075294367,Branch & Pennsylvania Ave SE,classic,0824c29d-1f3f-11e7-bf6b-3863bb334450,,2023/12/01 10:51:07+00,2,0,13,2,0,YES,YES,YES,YES,https://dc.lft.to/lastmile_qr_scan,https://dc.lft.to/lastmile_qr_scan,NO,NO,15,"KEY,CREDITCARD",42,DCA-CABI,,38.8692,-76.9599,2023/12/01 10:52:27+00,146014947
-77.0608702630213,38.804382689832,Duke St & John Carlyle St,classic,0825f465-1f3f-11e7-bf6b-3863bb334450,,2023/12/01 10:51:10+00,9,0,5,2,0,YES,YES,YES,YES,https://dc.lft.to/lastmile_qr_scan,https://dc.lft.to/lastmile_qr_scan,NO,NO,15,"KEY,CREDITCARD",40,DCA-CABI,,38.804378,-77.060866,2023/12/01 10:52:27+00,146014948
-77.0486970113691,38.7981365021341,Franklin St & S Washington St,classic,0826242b-1f3f-11e7-bf6b-3863bb334450,,2023/12/01 10:50:15+00,13,0,6,0,0,YES,YES,YES,YES,https://dc.lft.to/lastmile_qr_scan,https://dc.lft.to/lastmile_qr_scan,NO,NO,19,"KEY,CREDITCARD",40,DCA-CABI,,38.798133,-77.0487,2023/12/01 10:52:27+00,146014949
-77.0138175677936,38.8637544974417,2nd & V St SW / James Creek Marina,classic,4784f152-5012-49fc-b1bb-723a6d73aa09,,2023/12/01 10:51:17+00,2,0,17,0,0,YES,YES,YES,YES,https://dc.lft.to/lastmile_qr_scan,https://dc.lft.to/lastmile_qr_scan,NO,NO,19,"KEY,CREDITCARD",42,DCA-CABI,,38.863743,-77.013814,2023/12/01 10:52:27+00,146014950
-77.2719119894088,38.8650962597897,Fairfax Blvd & Pickett Rd North,classic,1872703318198888690,,2023/12/01 10:50:34+00,1,0,10,0,0,YES,YES,YES,YES,https://dc.lft.to/lastmile_qr_scan,https://dc.lft.to/lastmile_qr_scan,NO,NO,12,"KEY,CREDITCARD",,DCA-CABI,,38.865091,-77.271911,2023/12/01 10:52:27+00,146014951
-77.0160576950065,38.7826418974218,Fleet St & Waterfront St,classic,d4e8307d-5fb2-4ece-a66a-1522b1ebf79c,,2023/12/01 10:50:23+00,13,0,2,0,0,YES,YES,YES,YES,https://dc.lft.to/lastmile_qr_scan,https://dc.lft.to/lastmile_qr_scan,NO,NO,15,"KEY,CREDITCARD",133,DCA-CABI,,38.782633,-77.016059,2023/12/01 10:52:27+00,146014952
-77.0161061235238,38.8953556458533,4th & D St NW / Judiciary Square,classic,0824cb9b-1f3f-11e7-bf6b-3863bb334450,,2023/12/01 10:50:23+00,2,0,12,2,1,YES,YES,YES,YES,https://dc.lft.to/lastmile_qr_scan,https://dc.lft.to/lastmile_qr_scan,NO,NO,15,"KEY,CREDITCARD",42,DCA-CABI,,38.895344,-77.016106,2023/12/01 10:52:27+00,146014953
-77.3630994503967,38.9551756737624,Town Center Pkwy & Sunset Hills Rd,classic,082653a6-1f3f-11e7-bf6b-3863bb334450,,2023/12/01 10:50:23+00,5,0,6,0,0,YES,YES,YES,YES,https://dc.lft.to/lastmile_qr_scan,https://dc.lft.to/lastmile_qr_scan,NO,NO,11,"KEY,CREDITCARD",104,DCA-CABI,,38.955171,-77.363094,2023/12/01 10:52:27+00,146014954
-77.0601703308956,38.9028362175687,Thomas Jefferson St NW & Water/K St NW,classic,0826030a-1f3f-11e7-bf6b-3863bb334450,,2023/12/01 10:50:31+00,10,0,8,3,1,YES,YES,YES,YES,https://dc.lft.to/lastmile_qr_scan,https://dc.lft.to/lastmile_qr_scan,NO,NO,19,"KEY,CREDITCARD",42,DCA-CABI,,38.902826,-77.060173,2023/12/01 10:52:27+00,146014955
-77.0671392629188,38.8965625995829,Roosevelt Island,classic,08254f8e-1f3f-11e7-bf6b-3863bb334450,,2023/12/01 10:51:25+00,10,0,7,0,0,YES,YES,YES,YES,https://dc.lft.to/lastmile_qr_scan,https://dc.lft.to/lastmile_qr_scan,NO,NO,17,"KEY,CREDITCARD",41,DCA-CABI,,38.896553,-77.06714,2023/12/01 10:52:27+00,146014956
-76.9951956995701,38.8899966763861,8th & East Capitol St NE,classic,082553a7-1f3f-11e7-bf6b-3863bb334450,,2023/12/01 10:51:26+00,9,0,2,0,0,YES,YES,YES,YES,https://dc.lft.to/lastmile_qr_scan,https://dc.lft.to/lastmile_qr_scan,NO,NO,11,"KEY,CREDITCARD",42,DCA-CABI,,38.889988,-76.995193,2023/12/01 10:52:27+00,146014957
-77.0752771686291,38.9396805311224,Wisconsin Ave & Rodman St NW,classic,c7402dc0-b498-47b0-8977-2b9d671a62bb,,2023/12/01 10:51:22+00,19,0,2,0,1,YES,YES,YES,YES,https://dc.lft.to/lastmile_qr_scan,https://dc.lft.to/lastmile_qr_scan,NO,NO,23,"KEY,CREDITCARD",42,DCA-CABI,,38.939674,-77.075277,2023/12/01 10:52:27+00,146014958
-77.0328219854473,38.9477805970972,14th St Heights / 14th & Crittenden St NW,classic,0824979f-1f3f-11e7-bf6b-3863bb334450,,2023/12/01 10:51:26+00,1,0,9,7,0,YES,YES,YES,YES,https://dc.lft.to/lastmile_qr_scan,https://dc.lft.to/lastmile_qr_scan,NO,NO,11,"KEY,CREDITCARD",42,DCA-CABI,,38.947774,-77.032818,2023/12/01 10:52:27+00,146014959
-77.1008018813877,38.80816561864,Wheeler Ave & S. Floyd St.,classic,8e3245e2-f310-4173-9c2d-9ad00587a23c,,2023/12/01 10:51:23+00,7,0,5,0,0,YES,YES,YES,YES,https://dc.lft.to/lastmile_qr_scan,https://dc.lft.to/lastmile_qr_scan,NO,NO,12,"KEY,CREDITCARD",40,DCA-CABI,,38.808161,-77.100796,2023/12/01 10:52:27+00,146014960
-77.0317410373231,38.9036671613717,14th & L St NW,classic,08261977-1f3f-11e7-bf6b-3863bb334450,,2023/12/01 10:51:27+00,7,0,11,0,1,YES,YES,YES,YES,https://dc.lft.to/lastmile_qr_scan,https://dc.lft.to/lastmile_qr_scan,NO,NO,19,"KEY,CREDITCARD",42,DCA-CABI,,38.903658,-77.031737,2023/12/01 10:52:27+00,146014961
-77.1045693798322,38.8964630230575,Langston Blvd & N Monroe St,classic,0825feb6-1f3f-11e7-bf6b-3863bb334450,,2023/12/01 10:50:55+00,9,0,6,3,0,YES,YES,YES,YES,https://dc.lft.to/lastmile_qr_scan,https://dc.lft.to/lastmile_qr_scan,NO,NO,15,"KEY,CREDITCARD",41,DCA-CABI,,38.896456,-77.104562,2023/12/01 10:52:27+00,146014962
-77.0386254060488,38.9067729696903,17th St & Rhode Island Ave NW,classic,affeb890-08dc-46d2-9f8a-3eedf4452640,,2023/12/01 10:50:54+00,3,0,16,2,0,YES,YES,YES,YES,https://dc.lft.to/lastmile_qr_scan,https://dc.lft.to/lastmile_qr_scan,NO,NO,19,"KEY,CREDITCARD",42,DCA-CABI,,38.906767,-77.038627,2023/12/01 10:52:27+00,146014963
-76.985898496112,38.9243087241831,Rhode Island & Montana Ave NE,classic,30c5787e-6fdb-421d-8eaf-32e652dbeae2,,2023/12/01 10:51:05+00,2,0,17,3,0,YES,YES,YES,YES,https://dc.lft.to/lastmile_qr_scan,https://dc.lft.to/lastmile_qr_scan,NO,NO,19,"KEY,CREDITCARD",42,DCA-CABI,,38.9243,-76.9859,2023/12/01 10:52:27+00,146014964
-77.0532325197109,38.859761457673,Eads St & 15th St S,classic,082469cc-1f3f-11e7-bf6b-3863bb334450,,2023/12/01 10:51:02+00,9,0,6,2,0,YES,YES,YES,YES,https://dc.lft.to/lastmile_qr_scan,https://dc.lft.to/lastmile_qr_scan,NO,NO,15,"KEY,CREDITCARD",41,DCA-CABI,,38.859751,-77.053235,2023/12/01 10:52:27+00,146014965
-77.0098931220219,38.8974552866704,North Capitol St & F St NW,classic,0824d140-1f3f-11e7-bf6b-3863bb334450,,2023/12/01 10:49:30+00,12,0,11,0,0,YES,YES,YES,YES,https://dc.lft.to/lastmile_qr_scan,https://dc.lft.to/lastmile_qr_scan,NO,NO,23,"KEY,CREDITCARD",42,DCA-CABI,,38.897446,-77.009888,2023/12/01 10:52:27+00,146014966
-77.2299743393621,38.8701049973848,Merrifield Cinema & Merrifield Town Center,classic,65c9578a-8bda-4908-b626-06371c09338b,,2023/12/01 10:49:30+00,2,0,9,0,0,YES,YES,YES,YES,https://dc.lft.to/lastmile_qr_scan,https://dc.lft.to/lastmile_qr_scan,NO,NO,11,"KEY,CREDITCARD",104,DCA-CABI,,38.870093,-77.22997,2023/12/01 10:52:27+00,146014967
-77.0772772699919,38.9226535164753,39th & Calvert St NW / Stoddert,classic,08251f93-1f3f-11e7-bf6b-3863bb334450,,2023/12/01 10:49:31+00,17,0,2,1,0,YES,YES,YES,YES,https://dc.lft.to/lastmile_qr_scan,https://dc.lft.to/lastmile_qr_scan,NO,NO,19,"KEY,CREDITCARD",42,DCA-CABI,,38.922649,-77.077271,2023/12/01 10:52:27+00,146014968
-77.3518379420974,38.9736321154641,Reston Pkwy & Bennington Woods Rd,classic,a0121df5-4df5-425f-afb8-77dc94dc6d1b,,2023/12/01 10:51:07+00,2,0,10,0,0,YES,YES,YES,YES,https://dc.lft.to/lastmile_qr_scan,https://dc.lft.to/lastmile_qr_scan,NO,NO,12,"KEY,CREDITCARD",104,DCA-CABI,,38.973625,-77.351837,2023/12/01 10:52:27+00,146014969
-77.3665018293596,38.9414993880206,Glade Dr & Pinecrest Rd/Cathy Hudgins Cmty Ctr,classic,9c8b35b2-fcab-4142-957d-5bb845374685,,2023/12/01 10:49:32+00,4,0,8,0,0,YES,YES,YES,YES,https://dc.lft.to/lastmile_qr_scan,https://dc.lft.to/lastmile_qr_scan,NO,NO,12,"KEY,CREDITCARD",104,DCA-CABI,,38.941496,-77.366499,2023/12/01 10:52:27+00,146014970
-77.0759253857238,38.8876659521894,12th St N & N Pierce St,classic,08254215-1f3f-11e7-bf6b-3863bb334450,,2023/12/01 10:49:32+00,5,0,6,0,0,YES,YES,YES,YES,https://dc.lft.to/lastmile_qr_scan,https://dc.lft.to/lastmile_qr_scan,NO,NO,11,"KEY,CREDITCARD",41,DCA-CABI,,38.887659,-77.07592,2023/12/01 10:52:27+00,146014971
-77.227423664959,38.9230883544184,Greensboro & International Dr,classic,0826410b-1f3f-11e7-bf6b-3863bb334450,,2023/12/01 10:50:55+00,8,0,2,0,0,YES,YES,YES,YES,https://dc.lft.to/lastmile_qr_scan,https://dc.lft.to/lastmile_qr_scan,NO,NO,11,"KEY,CREDITCARD",104,DCA-CABI,,38.923083,-77.227417,2023/12/01 10:52:27+00,146014972
-77.0511667550857,38.9996884650584,Lyttonsville Rd & Lyttonsville Pl,classic,082618a7-1f3f-11e7-bf6b-3863bb334450,,2023/12/01 10:50:42+00,9,0,6,1,0,YES,YES,YES,YES,https://dc.lft.to/lastmile_qr_scan,https://dc.lft.to/lastmile_qr_scan,NO,NO,15,"KEY,CREDITCARD",44,DCA-CABI,,38.999679,-77.051168,2023/12/01 10:52:27+00,146014973
-77.0824663267183,38.8027478916564,Eisenhower Ave & Ike Dr,classic,b8ba3b0d-9efa-4093-8baa-bb3e7d384c46,,2023/12/01 10:51:29+00,5,0,9,1,0,YES,YES,YES,YES,https://dc.lft.to/lastmile_qr_scan,https://dc.lft.to/lastmile_qr_scan,NO,NO,15,"KEY,CREDITCARD",40,DCA-CABI,,38.802738,-77.082463,2023/12/01 10:52:27+00,146014974
-76.9753065610877,38.8401145713039,Southern Ave Metro,classic,772ca14a-a964-4745-ab93-37cc472d8ff2,,2023/12/01 10:51:02+00,8,0,7,0,0,YES,YES,YES,YES,https://dc.lft.to/lastmile_qr_scan,https://dc.lft.to/lastmile_qr_scan,NO,NO,15,"KEY,CREDITCARD",133,DCA-CABI,,38.840107,-76.9753,2023/12/01 10:52:27+00,146014975
-76.9909605486785,38.9286512339009,12th & Irving St NE,classic,0825619c-1f3f-11e7-bf6b-3863bb334450,,2023/12/01 10:49:34+00,7,0,8,5,0,YES,YES,YES,YES,https://dc.lft.to/lastmile_qr_scan,https://dc.lft.to/lastmile_qr_scan,NO,NO,15,"KEY,CREDITCARD",42,DCA-CABI,,38.928644,-76.990955,2023/12/01 10:52:27+00,146014976
-76.9755702327,38.8437810657902,Mississippi Ave & 19th St SE / THEARC,classic,72b359a7-f70e-4b97-aaf6-2b26f09f19b1,,2023/12/01 10:51:29+00,4,0,15,0,0,YES,YES,YES,YES,https://dc.lft.to/lastmile_qr_scan,https://dc.lft.to/lastmile_qr_scan,NO,NO,19,"KEY,CREDITCARD",42,DCA-CABI,,38.84377,-76.97557,2023/12/01 10:52:27+00,146014977
-77.0431859480542,38.8984206258705,19th & G St NW,classic,0825fff6-1f3f-11e7-bf6b-3863bb334450,,2023/12/01 10:49:35+00,8,0,14,2,0,YES,YES,YES,YES,https://dc.lft.to/lastmile_qr_scan,https://dc.lft.to/lastmile_qr_scan,NO,NO,23,"KEY,CREDITCARD",42,DCA-CABI,,38.898412,-77.043182,2023/12/01 10:52:27+00,146014978
-76.9901250433515,38.8824923754259,12th St & Pennsylvania Ave SE,classic,082642bd-1f3f-11e7-bf6b-3863bb334450,,2023/12/01 10:49:35+00,10,0,6,0,2,YES,YES,YES,YES,https://dc.lft.to/lastmile_qr_scan,https://dc.lft.to/lastmile_qr_scan,NO,NO,19,"KEY,CREDITCARD",42,DCA-CABI,,38.882489,-76.990121,2023/12/01 10:52:27+00,146014979
-77.02227654989,38.9057412707184,Convention Center / 7th & M St NW,classic,0824a4ce-1f3f-11e7-bf6b-3863bb334450,,2023/12/01 10:50:34+00,8,0,14,5,1,YES,YES,YES,YES,https://dc.lft.to/lastmile_qr_scan,https://dc.lft.to/lastmile_qr_scan,NO,NO,23,"KEY,CREDITCARD",42,DCA-CABI,,38.905737,-77.02227,2023/12/01 10:52:27+00,146014980
-77.0009006729649,38.8360093238993,4th St & Mississippi Ave SE,classic,8083cb0d-c3a4-417e-b46e-afe6cf1a7e67,,2023/12/01 10:50:43+00,1,0,18,0,0,YES,YES,YES,YES,https://dc.lft.to/lastmile_qr_scan,https://dc.lft.to/lastmile_qr_scan,NO,NO,19,"KEY,CREDITCARD",42,DCA-CABI,,38.836,-77.0009,2023/12/01 10:52:27+00,146014981
-76.9880414835076,38.8673850940536,MLK & Marion Barry Ave SE,classic,0824821f-1f3f-11e7-bf6b-3863bb334450,,2023/12/01 10:49:39+00,7,0,3,1,1,YES,YES,YES,YES,https://dc.lft.to/lastmile_qr_scan,https://dc.lft.to/lastmile_qr_scan,NO,NO,11,"KEY,CREDITCARD",42,DCA-CABI,,38.867373,-76.988039,2023/12/01 10:52:27+00,146014982
-77.1458095054079,39.0854020573601,Rockville Metro East,classic,0825e147-1f3f-11e7-bf6b-3863bb334450,,2023/12/01 10:49:40+00,11,0,2,0,0,YES,YES,YES,YES,https://dc.lft.to/lastmile_qr_scan,https://dc.lft.to/lastmile_qr_scan,NO,NO,13,"KEY,CREDITCARD",43,DCA-CABI,,39.085394,-77.145803,2023/12/01 10:52:27+00,146014983
-76.9612842479693,38.8904678035914,Anacostia Ave & East Capitol St NE,classic,5a3453ad-43af-495d-ba1f-e8be6b66e2e8,,2023/12/01 10:49:38+00,5,0,14,3,0,YES,YES,YES,YES,https://dc.lft.to/lastmile_qr_scan,https://dc.lft.to/lastmile_qr_scan,NO,NO,19,"KEY,CREDITCARD",42,DCA-CABI,,38.890461,-76.96128,2023/12/01 10:52:27+00,146014984
-77.0415461265382,38.8935206685627,18th & C St NW,classic,08261aba-1f3f-11e7-bf6b-3863bb334450,,2023/12/01 10:49:40+00,5,0,13,2,1,YES,YES,YES,YES,https://dc.lft.to/lastmile_qr_scan,https://dc.lft.to/lastmile_qr_scan,NO,NO,19,"KEY,CREDITCARD",42,DCA-CABI,,38.893511,-77.041544,2023/12/01 10:52:27+00,146014985
-77.0010268326742,38.7987592412549,Oxon Hill Park & Ride,classic,ccd82461-11b7-4553-b70b-6cb7e5e4f8c2,,2023/12/01 10:49:41+00,10,0,4,0,1,YES,YES,YES,YES,https://dc.lft.to/lastmile_qr_scan,https://dc.lft.to/lastmile_qr_scan,NO,NO,15,"KEY,CREDITCARD",133,DCA-CABI,,38.798749,-77.00103,2023/12/01 10:52:27+00,146014986
-77.0497799982026,38.8324403685483,Main Line Blvd & E Glebe,classic,1b02c95b-63f9-41cd-8c0d-90334a29c7ce,,2023/12/01 10:50:53+00,1,0,18,0,0,YES,YES,YES,YES,https://dc.lft.to/lastmile_qr_scan,https://dc.lft.to/lastmile_qr_scan,NO,NO,19,"KEY,CREDITCARD",40,DCA-CABI,,38.832431,-77.049772,2023/12/01 10:52:27+00,146014987
-77.1887077221266,38.9001048918593,West Falls Church Metro,classic,825f1146-bd56-4b4a-acfa-ff9d95472723,,2023/12/01 10:49:38+00,13,0,6,0,0,YES,YES,YES,YES,https://dc.lft.to/lastmile_qr_scan,https://dc.lft.to/lastmile_qr_scan,NO,NO,19,"KEY,CREDITCARD",104,DCA-CABI,,38.9001,-77.1887,2023/12/01 10:52:27+00,146014988
-77.0402955791729,38.8019503060643,Duke St & Strand (Robinson Terminal),classic,66fe4efd-f6de-4300-9b35-82e3aea013e5,,2023/12/01 10:49:37+00,6,0,4,4,1,YES,YES,YES,YES,https://dc.lft.to/lastmile_qr_scan,https://dc.lft.to/lastmile_qr_scan,NO,NO,11,"KEY,CREDITCARD",40,DCA-CABI,,38.801947,-77.040293,2023/12/01 10:52:27+00,146014989
-77.0227732312333,38.9086508716437,8th & O St NW,classic,08260549-1f3f-11e7-bf6b-3863bb334450,,2023/12/01 10:49:37+00,10,0,9,5,0,YES,YES,YES,YES,https://dc.lft.to/lastmile_qr_scan,https://dc.lft.to/lastmile_qr_scan,NO,NO,19,"KEY,CREDITCARD",42,DCA-CABI,,38.90864,-77.02277,2023/12/01 10:52:27+00,146014990
-77.0386347638972,38.9027642493453,17th & K St NW,classic,08249345-1f3f-11e7-bf6b-3863bb334450,,2023/12/01 10:49:48+00,0,0,23,3,0,YES,YES,YES,YES,https://dc.lft.to/lastmile_qr_scan,https://dc.lft.to/lastmile_qr_scan,NO,NO,23,"KEY,CREDITCARD",42,DCA-CABI,,38.90276,-77.03863,2023/12/01 10:52:27+00,146014991
-76.9945753457594,38.8626111202746,Anacostia Metro,classic,08248172-1f3f-11e7-bf6b-3863bb334450,,2023/12/01 10:51:07+00,12,0,7,1,0,YES,YES,YES,YES,https://dc.lft.to/lastmile_qr_scan,https://dc.lft.to/lastmile_qr_scan,NO,NO,19,"KEY,CREDITCARD",42,DCA-CABI,,38.862601,-76.994578,2023/12/01 10:52:27+00,146014992
-77.0270904966052,38.9223336117022,11th & Clifton St NW,classic,5205f20c-ded8-4469-bafd-021bc7229295,,2023/12/01 10:49:42+00,6,0,13,5,1,YES,YES,YES,YES,https://dc.lft.to/lastmile_qr_scan,https://dc.lft.to/lastmile_qr_scan,NO,NO,19,"KEY,CREDITCARD",42,DCA-CABI,,38.922324,-77.027086,2023/12/01 10:52:27+00,146014993
-77.3267597303404,38.9708132137423,Ring Rd & North Shore Dr,classic,bc5c6cf3-1c33-457f-a13d-f358c9909dc2,,2023/12/01 10:49:43+00,4,0,8,0,0,YES,YES,YES,YES,https://dc.lft.to/lastmile_qr_scan,https://dc.lft.to/lastmile_qr_scan,NO,NO,12,"KEY,CREDITCARD",104,DCA-CABI,,38.970807,-77.326761,2023/12/01 10:52:27+00,146014994
-77.0591207607199,38.9022782352349,Georgetown Harbor / 30th St NW,classic,08249be7-1f3f-11e7-bf6b-3863bb334450,,2023/12/01 10:51:12+00,1,0,17,1,1,YES,YES,YES,YES,https://dc.lft.to/lastmile_qr_scan,https://dc.lft.to/lastmile_qr_scan,NO,NO,19,"KEY,CREDITCARD",42,DCA-CABI,,38.902268,-77.059117,2023/12/01 10:52:27+00,146014995
-77.0824918208982,38.8646990835547,S Wayne St and 9th St S,classic,71686e8c-9f47-4a65-8840-c7276be3786e,,2023/12/01 10:51:09+00,11,0,4,2,0,YES,YES,YES,YES,https://dc.lft.to/lastmile_qr_scan,https://dc.lft.to/lastmile_qr_scan,NO,NO,15,"KEY,CREDITCARD",41,DCA-CABI,,38.864694,-77.082491,2023/12/01 10:52:27+00,146014996
-77.2207368642122,38.9311005839217,Westbranch & Jones Branch Dr,classic,0d183ef3-5510-4afd-8e0d-8d240d119255,,2023/12/01 10:49:45+00,6,0,6,1,0,YES,YES,YES,YES,https://dc.lft.to/lastmile_qr_scan,https://dc.lft.to/lastmile_qr_scan,NO,NO,12,"KEY,CREDITCARD",104,DCA-CABI,,38.931089,-77.220729,2023/12/01 10:52:27+00,146014997
-77.019024618773,38.9030483479049,5th & K St NW,classic,08247d46-1f3f-11e7-bf6b-3863bb334450,,2023/12/01 10:50:42+00,14,0,4,2,1,YES,YES,YES,YES,https://dc.lft.to/lastmile_qr_scan,https://dc.lft.to/lastmile_qr_scan,NO,NO,19,"KEY,CREDITCARD",42,DCA-CABI,,38.90304,-77.019027,2023/12/01 10:52:27+00,146014998
-77.1128777800582,39.0475415129868,North Bethesda Metro,classic,eda4c5ee-faf7-4dae-b135-3065deb46ffe,,2023/12/01 10:50:56+00,21,0,4,4,0,YES,YES,YES,YES,https://dc.lft.to/lastmile_qr_scan,https://dc.lft.to/lastmile_qr_scan,NO,NO,25,"KEY,CREDITCARD",43,DCA-CABI,,39.04753,-77.11287,2023/12/01 10:52:27+00,146014999
-77.0344461910136,38.9190256188872,15th & W St NW,classic,08264250-1f3f-11e7-bf6b-3863bb334450,,2023/12/01 10:49:53+00,18,0,1,0,0,YES,YES,YES,YES,https://dc.lft.to/lastmile_qr_scan,https://dc.lft.to/lastmile_qr_scan,NO,NO,19,"KEY,CREDITCARD",42,DCA-CABI,,38.919019,-77.034449,2023/12/01 10:52:27+00,146015000
-77.0689490728802,38.8011171153964,Eisenhower Ave & Mill Race Ln,classic,0825f794-1f3f-11e7-bf6b-3863bb334450,,2023/12/01 10:50:57+00,7,0,8,2,0,YES,YES,YES,YES,https://dc.lft.to/lastmile_qr_scan,https://dc.lft.to/lastmile_qr_scan,NO,NO,15,"KEY,CREDITCARD",40,DCA-CABI,,38.801111,-77.068952,2023/12/01 10:52:27+00,146015001
-76.9418705051669,39.0778846265424,Briggs Chaney Park & Ride,classic,ac598bfa-89c4-4229-a397-a6279b4cd536,,2023/12/01 10:50:48+00,1,0,22,0,0,YES,YES,YES,YES,https://dc.lft.to/lastmile_qr_scan,https://dc.lft.to/lastmile_qr_scan,NO,NO,23,"KEY,CREDITCARD",44,DCA-CABI,,39.077875,-76.941867,2023/12/01 10:52:27+00,146015002
-76.9878264133698,38.8447198655528,Congress Heights Metro,classic,08251aba-1f3f-11e7-bf6b-3863bb334450,,2023/12/01 10:49:56+00,14,0,1,0,0,YES,YES,YES,YES,https://dc.lft.to/lastmile_qr_scan,https://dc.lft.to/lastmile_qr_scan,NO,NO,15,"KEY,CREDITCARD",42,DCA-CABI,,38.844711,-76.987823,2023/12/01 10:52:27+00,146015003
-77.0447031425199,38.7992731734018,Royal St & Wilkes St,classic,08261bf4-1f3f-11e7-bf6b-3863bb334450,,2023/12/01 10:51:12+00,1,0,14,2,0,YES,YES,YES,YES,https://dc.lft.to/lastmile_qr_scan,https://dc.lft.to/lastmile_qr_scan,NO,NO,15,"KEY,CREDITCARD",40,DCA-CABI,,38.799267,-77.0447,2023/12/01 10:52:27+00,146015004
-77.0459233543417,38.8529091467853,National Airport,classic,0248fa3b-6df4-4fdc-ae31-ee2e4d177da8,,2023/12/01 10:50:45+00,4,0,14,3,1,YES,YES,YES,YES,https://dc.lft.to/lastmile_qr_scan,https://dc.lft.to/lastmile_qr_scan,NO,NO,19,"KEY,CREDITCARD",41,DCA-CABI,,38.852903,-77.045916,2023/12/01 10:52:27+00,146015005
-77.2228102747454,38.8786048254032,Hartland Rd & Harte Pl,classic,c271d265-76c8-49f9-9b3c-b9490fb97ac0,,2023/12/01 10:50:22+00,3,0,7,1,0,YES,YES,YES,YES,https://dc.lft.to/lastmile_qr_scan,https://dc.lft.to/lastmile_qr_scan,NO,NO,11,"KEY,CREDITCARD",104,DCA-CABI,,38.878601,-77.222808,2023/12/01 10:52:27+00,146015006
-77.1129878317399,38.8766997877076,Carlin Springs Rd & N Thomas St,classic,08264392-1f3f-11e7-bf6b-3863bb334450,,2023/12/01 10:50:22+00,8,0,7,1,0,YES,YES,YES,YES,https://dc.lft.to/lastmile_qr_scan,https://dc.lft.to/lastmile_qr_scan,NO,NO,15,"KEY,CREDITCARD",41,DCA-CABI,,38.876695,-77.112982,2023/12/01 10:52:27+00,146015007
-77.0329531203465,38.9319980285758,14th & Newton St NW,classic,e9030e46-31bf-4def-befb-2e685ad48180,,2023/12/01 10:50:42+00,19,0,0,0,0,YES,YES,YES,YES,https://dc.lft.to/lastmile_qr_scan,https://dc.lft.to/lastmile_qr_scan,NO,NO,19,"KEY,CREDITCARD",42,DCA-CABI,,38.931991,-77.032956,2023/12/01 10:52:27+00,146015008
-77.0464498504546,38.9007165059824,21st & I St NW,classic,08247b29-1f3f-11e7-bf6b-3863bb334450,,2023/12/01 10:50:20+00,17,0,17,9,1,YES,YES,YES,YES,https://dc.lft.to/lastmile_qr_scan,https://dc.lft.to/lastmile_qr_scan,NO,NO,35,"KEY,CREDITCARD",42,DCA-CABI,,38.900711,-77.046449,2023/12/01 10:52:27+00,146015009
-77.0269774538935,38.8978669750581,11th & F St NW,classic,0824e72a-1f3f-11e7-bf6b-3863bb334450,,2023/12/01 10:50:21+00,11,0,4,2,0,YES,YES,YES,YES,https://dc.lft.to/lastmile_qr_scan,https://dc.lft.to/lastmile_qr_scan,NO,NO,15,"KEY,CREDITCARD",42,DCA-CABI,,38.897857,-77.026975,2023/12/01 10:52:27+00,146015010
-77.0451318328615,38.8947264598532,20th St & Virginia Ave NW,classic,082543d4-1f3f-11e7-bf6b-3863bb334450,,2023/12/01 10:50:19+00,0,0,14,5,1,YES,YES,YES,YES,https://dc.lft.to/lastmile_qr_scan,https://dc.lft.to/lastmile_qr_scan,NO,NO,15,"KEY,CREDITCARD",42,DCA-CABI,,38.894722,-77.045128,2023/12/01 10:52:27+00,146015011
-77.0322249628347,38.9285570569183,14th & Irving St NW,classic,082631cd-1f3f-11e7-bf6b-3863bb334450,,2023/12/01 10:50:20+00,21,0,10,1,0,YES,YES,YES,YES,https://dc.lft.to/lastmile_qr_scan,https://dc.lft.to/lastmile_qr_scan,NO,NO,31,"KEY,CREDITCARD",42,DCA-CABI,,38.928552,-77.032224,2023/12/01 10:52:27+00,146015012
-77.0081333798246,38.8315228302008,South Capitol & Atlantic St SW,classic,08261a52-1f3f-11e7-bf6b-3863bb334450,,2023/12/01 10:50:24+00,8,0,11,0,0,YES,YES,YES,YES,https://dc.lft.to/lastmile_qr_scan,https://dc.lft.to/lastmile_qr_scan,NO,NO,19,"KEY,CREDITCARD",42,DCA-CABI,,38.831516,-77.008133,2023/12/01 10:52:27+00,146015013
-77.0241778187167,38.9366934996299,Georgia & New Hampshire Ave NW,classic,08247baa-1f3f-11e7-bf6b-3863bb334450,,2023/12/01 10:50:51+00,16,1,2,0,0,YES,YES,YES,YES,https://dc.lft.to/lastmile_qr_scan,https://dc.lft.to/lastmile_qr_scan,NO,NO,19,"KEY,CREDITCARD",42,DCA-CABI,,38.936684,-77.024181,2023/12/01 10:52:27+00,146015014
-77.3576085922496,38.955345739437,Sunset Hills Rd & Discovery Square,classic,08263bd6-1f3f-11e7-bf6b-3863bb334450,,2023/12/01 10:50:24+00,11,0,4,2,0,YES,YES,YES,YES,https://dc.lft.to/lastmile_qr_scan,https://dc.lft.to/lastmile_qr_scan,NO,NO,15,"KEY,CREDITCARD",104,DCA-CABI,,38.95534,-77.357611,2023/12/01 10:52:27+00,146015015
-77.0259008588385,38.9172081426925,10th & U St NW,classic,082483c2-1f3f-11e7-bf6b-3863bb334450,,2023/12/01 10:50:25+00,11,0,8,1,0,YES,YES,YES,YES,https://dc.lft.to/lastmile_qr_scan,https://dc.lft.to/lastmile_qr_scan,NO,NO,19,"KEY,CREDITCARD",42,DCA-CABI,,38.9172,-77.0259,2023/12/01 10:52:27+00,146015016
-76.9709368205825,38.8787777199039,Anacostia Roller Skating Pavilion,classic,d2a6b8ef-0d6d-4037-84e4-b905142031fa,,2023/12/01 10:50:25+00,14,0,5,1,0,YES,YES,YES,YES,https://dc.lft.to/lastmile_qr_scan,https://dc.lft.to/lastmile_qr_scan,NO,NO,19,"KEY,CREDITCARD",42,DCA-CABI,,38.878771,-76.97093,2023/12/01 10:52:27+00,146015017
-77.0172461665726,38.8904999706895,4th St & Madison Dr NW,classic,082620fc-1f3f-11e7-bf6b-3863bb334450,,2023/12/01 10:50:25+00,17,0,14,1,0,YES,YES,YES,YES,https://dc.lft.to/lastmile_qr_scan,https://dc.lft.to/lastmile_qr_scan,NO,NO,31,"KEY,CREDITCARD",42,DCA-CABI,,38.890496,-77.017247,2023/12/01 10:52:27+00,146015018
-77.3392934739043,38.9590306808744,Links Dr & Wedge Dr,classic,9f03d90d-a7ff-433e-9718-b8066c82c5f1,,2023/12/01 10:50:27+00,5,0,7,3,0,YES,YES,YES,YES,https://dc.lft.to/lastmile_qr_scan,https://dc.lft.to/lastmile_qr_scan,NO,NO,12,"KEY,CREDITCARD",104,DCA-CABI,,38.959025,-77.339295,2023/12/01 10:52:27+00,146015019
-77.0977419566509,38.8858120221162,Fairfax Dr & Wilson Blvd,classic,08251ded-1f3f-11e7-bf6b-3863bb334450,,2023/12/01 10:50:28+00,2,0,9,4,1,YES,YES,YES,YES,https://dc.lft.to/lastmile_qr_scan,https://dc.lft.to/lastmile_qr_scan,NO,NO,12,"KEY,CREDITCARD",41,DCA-CABI,,38.885801,-77.097745,2023/12/01 10:52:27+00,146015020
-77.0487268595586,38.9093996310597,22nd & P ST NW,classic,08261b21-1f3f-11e7-bf6b-3863bb334450,,2023/12/01 10:50:28+00,6,0,12,0,1,YES,YES,YES,YES,https://dc.lft.to/lastmile_qr_scan,https://dc.lft.to/lastmile_qr_scan,NO,NO,19,"KEY,CREDITCARD",42,DCA-CABI,,38.909394,-77.048728,2023/12/01 10:52:27+00,146015021
-77.1352727295967,38.8810001346086,Kennebec St & 11th St N,classic,08261fb3-1f3f-11e7-bf6b-3863bb334450,,2023/12/01 10:50:28+00,12,0,3,1,0,YES,YES,YES,YES,https://dc.lft.to/lastmile_qr_scan,https://dc.lft.to/lastmile_qr_scan,NO,NO,15,"KEY,CREDITCARD",41,DCA-CABI,,38.880992,-77.135271,2023/12/01 10:52:27+00,146015022
-76.9828712850095,38.9004182014603,Bladensburg Rd & Benning Rd NE,classic,0824c0d5-1f3f-11e7-bf6b-3863bb334450,,2023/12/01 10:50:29+00,8,0,7,0,0,YES,YES,YES,YES,https://dc.lft.to/lastmile_qr_scan,https://dc.lft.to/lastmile_qr_scan,NO,NO,15,"KEY,CREDITCARD",42,DCA-CABI,,38.900413,-76.982872,2023/12/01 10:52:27+00,146015023
-76.9452891385607,38.8703636825384,41st St & Alabama Ave SE / Fort Davis Rec,classic,0099b016-32c9-4536-ac4c-dcc1a117bd95,,2023/12/01 10:51:20+00,14,0,1,0,0,YES,YES,YES,YES,https://dc.lft.to/lastmile_qr_scan,https://dc.lft.to/lastmile_qr_scan,NO,NO,15,"KEY,CREDITCARD",42,DCA-CABI,,38.870353,-76.945283,2023/12/01 10:52:27+00,146015024
-77.0019617294152,38.8873843288679,3rd St & Pennsylvania Ave SE,classic,08256a59-1f3f-11e7-bf6b-3863bb334450,,2023/12/01 10:50:39+00,10,0,4,1,1,YES,YES,YES,YES,https://dc.lft.to/lastmile_qr_scan,https://dc.lft.to/lastmile_qr_scan,NO,NO,15,"KEY,CREDITCARD",42,DCA-CABI,,38.887378,-77.001955,2023/12/01 10:52:27+00,146015025
-77.1125493684424,38.8471345553536,Wakefield High School,classic,0825467b-1f3f-11e7-bf6b-3863bb334450,,2023/12/01 10:50:29+00,6,0,6,1,0,YES,YES,YES,YES,https://dc.lft.to/lastmile_qr_scan,https://dc.lft.to/lastmile_qr_scan,NO,NO,12,"KEY,CREDITCARD",41,DCA-CABI,,38.847129,-77.11255,2023/12/01 10:52:27+00,146015026
-77.0651220083087,38.9471635107478,Connecticut Ave & Yuma St NW,classic,08261e06-1f3f-11e7-bf6b-3863bb334450,,2023/12/01 10:50:29+00,8,0,10,0,0,YES,YES,YES,YES,https://dc.lft.to/lastmile_qr_scan,https://dc.lft.to/lastmile_qr_scan,NO,NO,19,"KEY,CREDITCARD",42,DCA-CABI,,38.947156,-77.065115,2023/12/01 10:52:27+00,146015027
-77.0124485842385,38.8762222874837,King Greenleaf Rec Center,classic,99ddcd49-1312-4d80-8030-9bc2732deb5c,,2023/12/01 10:50:29+00,6,0,13,1,0,YES,YES,YES,YES,https://dc.lft.to/lastmile_qr_scan,https://dc.lft.to/lastmile_qr_scan,NO,NO,19,"KEY,CREDITCARD",42,DCA-CABI,,38.876211,-77.012443,2023/12/01 10:52:27+00,146015028
-77.2252678725297,38.8685467036657,Gatehouse Rd & Telestar Ct,classic,523db239-4cfe-4d84-b8ff-60f1ad4d342c,,2023/12/01 10:50:59+00,6,0,5,1,0,YES,YES,YES,YES,https://dc.lft.to/lastmile_qr_scan,https://dc.lft.to/lastmile_qr_scan,NO,NO,11,"KEY,CREDITCARD",104,DCA-CABI,,38.868536,-77.225262,2023/12/01 10:52:27+00,146015029
-77.032201107953,38.9268094503574,14th & Harvard St NW,classic,082476ba-1f3f-11e7-bf6b-3863bb334450,,2023/12/01 10:51:26+00,18,0,1,0,0,YES,YES,YES,YES,https://dc.lft.to/lastmile_qr_scan,https://dc.lft.to/lastmile_qr_scan,NO,NO,19,"KEY,CREDITCARD",42,DCA-CABI,,38.9268,-77.0322,2023/12/01 10:52:27+00,146015030
-77.1045067466838,38.8694469078602,Arlington Blvd & S George Mason Dr,classic,0825f58d-1f3f-11e7-bf6b-3863bb334450,,2023/12/01 10:51:28+00,6,0,9,1,0,YES,YES,YES,YES,https://dc.lft.to/lastmile_qr_scan,https://dc.lft.to/lastmile_qr_scan,NO,NO,15,"KEY,CREDITCARD",41,DCA-CABI,,38.869442,-77.104503,2023/12/01 10:52:27+00,146015031
-76.9971998531366,38.9275074939582,Hamlin & 7th St NE,classic,08256ee8-1f3f-11e7-bf6b-3863bb334450,,2023/12/01 10:51:15+00,10,0,5,4,0,YES,YES,YES,YES,https://dc.lft.to/lastmile_qr_scan,https://dc.lft.to/lastmile_qr_scan,NO,NO,15,"KEY,CREDITCARD",42,DCA-CABI,,38.927497,-76.997194,2023/12/01 10:52:27+00,146015032
-77.0230517897715,38.8786979846733,Maine Ave & 7th St SW,classic,0824a68f-1f3f-11e7-bf6b-3863bb334450,,2023/12/01 10:50:33+00,14,0,6,0,1,YES,YES,YES,YES,https://dc.lft.to/lastmile_qr_scan,https://dc.lft.to/lastmile_qr_scan,NO,NO,21,"KEY,CREDITCARD",42,DCA-CABI,,38.878694,-77.023054,2023/12/01 10:52:27+00,146015033
-77.0714501296587,38.8960916071826,Rosslyn Metro / Wilson Blvd & N Moore St,classic,472d3644-c8f4-4912-ad84-79f11cee2e49,,2023/12/01 10:50:43+00,11,0,9,0,1,YES,YES,YES,YES,https://dc.lft.to/lastmile_qr_scan,https://dc.lft.to/lastmile_qr_scan,NO,NO,21,"KEY,CREDITCARD",41,DCA-CABI,,38.896087,-77.071452,2023/12/01 10:52:27+00,146015034
-76.9854354939171,39.0456582870652,Stewart Ln & Old Columbia Pike,classic,909f576d-3523-4646-aa26-900ba8c9cd13,,2023/12/01 10:50:47+00,19,0,0,0,0,YES,YES,YES,YES,https://dc.lft.to/lastmile_qr_scan,https://dc.lft.to/lastmile_qr_scan,NO,NO,19,"KEY,CREDITCARD",44,DCA-CABI,,39.045652,-76.985438,2023/12/01 10:52:27+00,146015035
-77.0329528826115,38.9564375106898,14th St & Colorado Ave NW,classic,082549b0-1f3f-11e7-bf6b-3863bb334450,,2023/12/01 10:51:12+00,9,0,10,3,0,YES,YES,YES,YES,https://dc.lft.to/lastmile_qr_scan,https://dc.lft.to/lastmile_qr_scan,NO,NO,19,"KEY,CREDITCARD",42,DCA-CABI,,38.956432,-77.032947,2023/12/01 10:52:27+00,146015036
-77.0425318996807,38.9228605027794,Adams Mill & Columbia Rd NW,classic,08247632-1f3f-11e7-bf6b-3863bb334450,,2023/12/01 10:50:48+00,17,0,2,1,0,YES,YES,YES,YES,https://dc.lft.to/lastmile_qr_scan,https://dc.lft.to/lastmile_qr_scan,NO,NO,19,"KEY,CREDITCARD",42,DCA-CABI,,38.922849,-77.042525,2023/12/01 10:52:27+00,146015037
-76.9901627210186,38.9436049478785,12th & Varnum St NE,classic,e800b2e8-5d8c-4ca1-920b-9622fa2a87ea,,2023/12/01 10:50:47+00,5,0,11,3,0,YES,YES,YES,YES,https://dc.lft.to/lastmile_qr_scan,https://dc.lft.to/lastmile_qr_scan,NO,NO,15,"KEY,CREDITCARD",42,DCA-CABI,,38.943596,-76.990157,2023/12/01 10:52:27+00,146015038
-76.9600598634507,38.9362207458781,Perry & 35th St,classic,068e6359-1741-4240-9ed1-07a9038bc319,,2023/12/01 10:50:48+00,3,0,11,2,1,YES,YES,YES,YES,https://dc.lft.to/lastmile_qr_scan,https://dc.lft.to/lastmile_qr_scan,NO,NO,15,"KEY,CREDITCARD",133,DCA-CABI,,38.936213,-76.960054,2023/12/01 10:52:27+00,146015039
-77.1357939991859,38.8097156352312,Whiting & Lane Dr,classic,5ac39643-b36d-415f-bbb4-1a5e2c61d98d,,2023/12/01 10:50:43+00,7,0,8,0,0,YES,YES,YES,YES,https://dc.lft.to/lastmile_qr_scan,https://dc.lft.to/lastmile_qr_scan,NO,NO,15,"KEY,CREDITCARD",40,DCA-CABI,,38.809709,-77.135788,2023/12/01 10:52:27+00,146015040
-76.98070753236,38.9725112830385,Riggs Rd & East West Hwy,classic,f0d65475-a505-474b-a40f-2488459105ac,,2023/12/01 10:50:40+00,11,0,5,4,1,YES,YES,YES,YES,https://dc.lft.to/lastmile_qr_scan,https://dc.lft.to/lastmile_qr_scan,NO,NO,17,"KEY,CREDITCARD",133,DCA-CABI,,38.9725,-76.9807,2023/12/01 10:52:27+00,146015041
-77.0534128488241,38.8543923518948,Eads St & 22nd St S,classic,0824866e-1f3f-11e7-bf6b-3863bb334450,,2023/12/01 10:50:36+00,7,0,8,1,0,YES,YES,YES,YES,https://dc.lft.to/lastmile_qr_scan,https://dc.lft.to/lastmile_qr_scan,NO,NO,15,"KEY,CREDITCARD",41,DCA-CABI,,38.854381,-77.053412,2023/12/01 10:52:27+00,146015042
-77.0051750419075,38.8531342674435,St. Elizabeths West Campus/DHS ,classic,8a10969e-9861-4926-bda6-f0b58a0c253d,,2023/12/01 10:50:53+00,19,0,0,0,0,YES,YES,YES,YES,https://dc.lft.to/lastmile_qr_scan,https://dc.lft.to/lastmile_qr_scan,NO,NO,19,"KEY,CREDITCARD",42,DCA-CABI,,38.853124,-77.005174,2023/12/01 10:52:27+00,146015043
-77.302732549045,38.8509401731562,Layton Hall Dr & University Dr,classic,1873077316413198460,,2023/12/01 10:50:52+00,0,0,12,2,0,YES,YES,YES,YES,https://dc.lft.to/lastmile_qr_scan,https://dc.lft.to/lastmile_qr_scan,NO,NO,12,"KEY,CREDITCARD",,DCA-CABI,,38.850932,-77.302732,2023/12/01 10:52:27+00,146015044
-77.226263597848,38.9100194746725,Madrillon Rd & Boss St,classic,5017ea72-2248-4ba8-af83-d9c9718b51e0,,2023/12/01 10:50:54+00,9,0,3,0,0,YES,YES,YES,YES,https://dc.lft.to/lastmile_qr_scan,https://dc.lft.to/lastmile_qr_scan,NO,NO,12,"KEY,CREDITCARD",104,DCA-CABI,,38.910016,-77.226266,2023/12/01 10:52:27+00,146015045
-76.9953001493936,38.8792046356292,8th & Eye St SE / Barracks Row,classic,08249671-1f3f-11e7-bf6b-3863bb334450,,2023/12/01 10:50:49+00,9,0,2,0,0,YES,YES,YES,YES,https://dc.lft.to/lastmile_qr_scan,https://dc.lft.to/lastmile_qr_scan,NO,NO,11,"KEY,CREDITCARD",42,DCA-CABI,,38.8792,-76.9953,2023/12/01 10:52:27+00,146015046
-77.0955992356069,38.8694275148623,TJ Cmty Ctr / 2nd St & S Old Glebe Rd,classic,0825bfcd-1f3f-11e7-bf6b-3863bb334450,,2023/12/01 10:50:49+00,6,0,8,0,0,YES,YES,YES,YES,https://dc.lft.to/lastmile_qr_scan,https://dc.lft.to/lastmile_qr_scan,NO,NO,15,"KEY,CREDITCARD",41,DCA-CABI,,38.869418,-77.095596,2023/12/01 10:52:27+00,146015047
-77.1163439924132,38.8570581378843,8th Rd & S Frederick St,classic,1cc6ee60-b82f-4264-a490-6c3e5e656ccd,,2023/12/01 10:50:33+00,4,0,8,3,0,YES,YES,YES,YES,https://dc.lft.to/lastmile_qr_scan,https://dc.lft.to/lastmile_qr_scan,NO,NO,12,"KEY,CREDITCARD",41,DCA-CABI,,38.857049,-77.116339,2023/12/01 10:52:27+00,146015048
-77.0865061478497,38.8969282145884,N Veitch St & 20th St N,classic,08251cd1-1f3f-11e7-bf6b-3863bb334450,,2023/12/01 10:50:32+00,14,0,2,0,0,YES,YES,YES,YES,https://dc.lft.to/lastmile_qr_scan,https://dc.lft.to/lastmile_qr_scan,NO,NO,16,"KEY,CREDITCARD",41,DCA-CABI,,38.896923,-77.086502,2023/12/01 10:52:27+00,146015049
-77.111069760953,38.8882864233651,Washington-Liberty High School / N Stafford St & Generals Way,classic,32a59636-02e5-4c53-a437-020986923dca,,2023/12/01 10:50:35+00,8,0,6,1,1,YES,YES,YES,YES,https://dc.lft.to/lastmile_qr_scan,https://dc.lft.to/lastmile_qr_scan,NO,NO,15,"KEY,CREDITCARD",41,DCA-CABI,,38.888282,-77.111066,2023/12/01 10:52:27+00,146015050
-77.0859356620981,38.8444096047149,S Four Mile Run Dr & Shirlington Rd,classic,08254a91-1f3f-11e7-bf6b-3863bb334450,,2023/12/01 10:51:26+00,2,0,10,0,0,YES,YES,YES,YES,https://dc.lft.to/lastmile_qr_scan,https://dc.lft.to/lastmile_qr_scan,NO,NO,12,"KEY,CREDITCARD",41,DCA-CABI,,38.8444,-77.085931,2023/12/01 10:52:27+00,146015051
-77.1020262818468,38.8593146271267,Columbia Pike & S George Mason Dr,classic,7a00f0f5-f757-4715-9e89-58253ac36de0,,2023/12/01 10:51:03+00,2,0,13,4,0,YES,YES,YES,YES,https://dc.lft.to/lastmile_qr_scan,https://dc.lft.to/lastmile_qr_scan,NO,NO,15,"KEY,CREDITCARD",41,DCA-CABI,,38.859306,-77.102019,2023/12/01 10:52:27+00,146015052
-77.0163124080319,38.9908794954639,Sligo Ave & Carroll Ln,classic,082641e3-1f3f-11e7-bf6b-3863bb334450,,2023/12/01 10:50:58+00,14,0,1,1,0,YES,YES,YES,YES,https://dc.lft.to/lastmile_qr_scan,https://dc.lft.to/lastmile_qr_scan,NO,NO,15,"KEY,CREDITCARD",44,DCA-CABI,,38.990874,-77.016311,2023/12/01 10:52:27+00,146015053
-77.0466197724161,38.8961221726486,21st & E St NW,classic,08249cd3-1f3f-11e7-bf6b-3863bb334450,,2023/12/01 10:50:59+00,0,0,14,6,1,YES,YES,YES,YES,https://dc.lft.to/lastmile_qr_scan,https://dc.lft.to/lastmile_qr_scan,NO,NO,15,"KEY,CREDITCARD",42,DCA-CABI,,38.896114,-77.046615,2023/12/01 10:52:27+00,146015054
-76.9935867716407,38.8366577602497,Valley Ave & Wheeler Rd SE,classic,0cabc1c7-cf6f-4afd-9242-c011b77f6330,,2023/12/01 10:51:06+00,5,0,14,2,0,YES,YES,YES,YES,https://dc.lft.to/lastmile_qr_scan,https://dc.lft.to/lastmile_qr_scan,NO,NO,19,"KEY,CREDITCARD",42,DCA-CABI,,38.836646,-76.993589,2023/12/01 10:52:27+00,146015055
-77.2221122880063,38.9209455743846,Tysons Metro North,classic,08263601-1f3f-11e7-bf6b-3863bb334450,,2023/12/01 10:51:06+00,14,0,1,0,0,YES,YES,YES,YES,https://dc.lft.to/lastmile_qr_scan,https://dc.lft.to/lastmile_qr_scan,NO,NO,15,"KEY,CREDITCARD",104,DCA-CABI,,38.920939,-77.222115,2023/12/01 10:52:27+00,146015056
-77.0122939987565,38.9154267166611,1st & Rhode Island Ave NW,classic,082515d4-1f3f-11e7-bf6b-3863bb334450,,2023/12/01 10:50:50+00,10,0,3,1,1,YES,YES,YES,YES,https://dc.lft.to/lastmile_qr_scan,https://dc.lft.to/lastmile_qr_scan,NO,NO,15,"KEY,CREDITCARD",42,DCA-CABI,,38.915417,-77.012289,2023/12/01 10:52:27+00,146015057
-77.051698705356,38.8577893016538,Crystal City Metro / 18th St & S Bell St,classic,08246f1f-1f3f-11e7-bf6b-3863bb334450,,2023/12/01 10:51:12+00,14,0,5,2,0,YES,YES,YES,YES,https://dc.lft.to/lastmile_qr_scan,https://dc.lft.to/lastmile_qr_scan,NO,NO,19,"KEY,CREDITCARD",41,DCA-CABI,,38.857785,-77.051698,2023/12/01 10:52:27+00,146015058
-77.0023074403427,38.8851052018401,3rd & D St SE,classic,08249407-1f3f-11e7-bf6b-3863bb334450,,2023/12/01 10:51:13+00,10,0,4,0,0,YES,YES,YES,YES,https://dc.lft.to/lastmile_qr_scan,https://dc.lft.to/lastmile_qr_scan,NO,NO,15,"KEY,CREDITCARD",42,DCA-CABI,,38.8851,-77.0023,2023/12/01 10:52:27+00,146015059
-77.3678751365281,38.937153040774,Green Range Dr and Glade Dr,classic,0eae33bc-0b63-4120-ac4d-1e4ac729d524,,2023/12/01 10:51:13+00,1,0,10,0,1,YES,YES,YES,YES,https://dc.lft.to/lastmile_qr_scan,https://dc.lft.to/lastmile_qr_scan,NO,NO,12,"KEY,CREDITCARD",104,DCA-CABI,,38.937146,-77.367868,2023/12/01 10:52:27+00,146015060
-76.9914731022418,38.8859156680802,11th & C St SE,classic,3f1dfbbd-7b34-4efd-91a3-60acad4cf42f,,2023/12/01 10:51:12+00,15,1,2,0,1,YES,YES,YES,YES,https://dc.lft.to/lastmile_qr_scan,https://dc.lft.to/lastmile_qr_scan,NO,NO,19,"KEY,CREDITCARD",42,DCA-CABI,,38.885908,-76.991476,2023/12/01 10:52:27+00,146015061
-77.0116222338188,38.8971128095495,New Jersey Ave & F St NW,classic,96ce48cf-5d98-4dfb-86b1-f461230cd193,,2023/12/01 10:51:06+00,11,0,22,7,0,YES,YES,YES,YES,https://dc.lft.to/lastmile_qr_scan,https://dc.lft.to/lastmile_qr_scan,NO,NO,33,"KEY,CREDITCARD",42,DCA-CABI,,38.897108,-77.011616,2023/12/01 10:52:27+00,146015062
-77.2211852099411,38.9194789711864,Tysons Metro South,classic,0826359a-1f3f-11e7-bf6b-3863bb334450,,2023/12/01 10:51:12+00,8,0,2,0,0,YES,YES,YES,YES,https://dc.lft.to/lastmile_qr_scan,https://dc.lft.to/lastmile_qr_scan,NO,NO,11,"KEY,CREDITCARD",104,DCA-CABI,,38.919475,-77.221179,2023/12/01 10:52:27+00,146015063
-77.0220030608041,38.9161459583917,7th St & Florida Ave NW,classic,082485e8-1f3f-11e7-bf6b-3863bb334450,,2023/12/01 10:51:17+00,11,0,3,0,0,YES,YES,YES,YES,https://dc.lft.to/lastmile_qr_scan,https://dc.lft.to/lastmile_qr_scan,NO,NO,15,"KEY,CREDITCARD",42,DCA-CABI,,38.916137,-77.022003,2023/12/01 10:52:27+00,146015064
-77.0418339985359,38.9126543143908,18th & R St NW,classic,0825fd75-1f3f-11e7-bf6b-3863bb334450,,2023/12/01 10:51:17+00,11,0,8,1,0,YES,YES,YES,YES,https://dc.lft.to/lastmile_qr_scan,https://dc.lft.to/lastmile_qr_scan,NO,NO,19,"KEY,CREDITCARD",42,DCA-CABI,,38.912648,-77.041834,2023/12/01 10:52:27+00,146015065
-77.359716928836,38.9570418469793,W&OD Trail & Explorer St/Reston Bus Station,classic,08263a37-1f3f-11e7-bf6b-3863bb334450,,2023/12/01 10:51:15+00,4,0,13,1,0,YES,YES,YES,YES,https://dc.lft.to/lastmile_qr_scan,https://dc.lft.to/lastmile_qr_scan,NO,NO,17,"KEY,CREDITCARD",104,DCA-CABI,,38.957037,-77.359718,2023/12/01 10:52:27+00,146015066
-77.0632789969705,38.8592609814228,Joyce St & 16th St S,classic,0825fddc-1f3f-11e7-bf6b-3863bb334450,,2023/12/01 10:51:14+00,12,0,3,0,0,YES,YES,YES,YES,https://dc.lft.to/lastmile_qr_scan,https://dc.lft.to/lastmile_qr_scan,NO,NO,15,"KEY,CREDITCARD",41,DCA-CABI,,38.859254,-77.063275,2023/12/01 10:52:27+00,146015067
-77.0635627419493,38.8026876549104,Ballenger Ave & Dulaney St,classic,0825f872-1f3f-11e7-bf6b-3863bb334450,,2023/12/01 10:51:20+00,16,0,3,1,0,YES,YES,YES,YES,https://dc.lft.to/lastmile_qr_scan,https://dc.lft.to/lastmile_qr_scan,NO,NO,19,"KEY,CREDITCARD",40,DCA-CABI,,38.802677,-77.063562,2023/12/01 10:52:27+00,146015068
-77.1002991605299,38.8847108306501,GMU/Fairfax Dr & Kenmore St,classic,08252a92-1f3f-11e7-bf6b-3863bb334450,,2023/12/01 10:51:23+00,5,0,9,7,1,YES,YES,YES,YES,https://dc.lft.to/lastmile_qr_scan,https://dc.lft.to/lastmile_qr_scan,NO,NO,15,"KEY,CREDITCARD",41,DCA-CABI,,38.884703,-77.100302,2023/12/01 10:52:27+00,146015069
-77.1077372451042,38.8415538554806,N. Beauregard St. & Berkley St.,classic,9f86df22-57d4-498a-ab35-2d3fb76e4723,,2023/12/01 10:50:35+00,7,0,12,0,0,YES,YES,YES,YES,https://dc.lft.to/lastmile_qr_scan,https://dc.lft.to/lastmile_qr_scan,NO,NO,19,"KEY,CREDITCARD",40,DCA-CABI,,38.841548,-77.107734,2023/12/01 10:52:27+00,146015070
-77.3593484997281,38.9663485799764,Baron Cameron Ave & North Hampton Ave,classic,8aa43882-2e93-41fb-b55d-a6a15b5b446b,,2023/12/01 10:51:23+00,8,0,4,1,0,YES,YES,YES,YES,https://dc.lft.to/lastmile_qr_scan,https://dc.lft.to/lastmile_qr_scan,NO,NO,12,"KEY,CREDITCARD",104,DCA-CABI,,38.966344,-77.359341,2023/12/01 10:52:27+00,146015071
-76.9876334240151,38.8948426251047,13th & D St NE,classic,0824c309-1f3f-11e7-bf6b-3863bb334450,,2023/12/01 10:51:27+00,13,0,15,0,3,YES,YES,YES,YES,https://dc.lft.to/lastmile_qr_scan,https://dc.lft.to/lastmile_qr_scan,NO,NO,31,"KEY,CREDITCARD",42,DCA-CABI,,38.894832,-76.987633,2023/12/01 10:52:27+00,146015072
-77.0802138584383,38.9498205807519,Wisconsin Ave & Brandywine St NW,classic,082632a8-1f3f-11e7-bf6b-3863bb334450,,2023/12/01 10:51:26+00,17,0,8,2,0,YES,YES,YES,YES,https://dc.lft.to/lastmile_qr_scan,https://dc.lft.to/lastmile_qr_scan,NO,NO,25,"KEY,CREDITCARD",42,DCA-CABI,,38.949813,-77.080217,2023/12/01 10:52:27+00,146015073
-77.3619023103047,38.9625301839679,Town Center Pkwy & Bowman Towne Dr,classic,08263885-1f3f-11e7-bf6b-3863bb334450,,2023/12/01 10:51:25+00,0,0,15,3,0,YES,YES,YES,YES,https://dc.lft.to/lastmile_qr_scan,https://dc.lft.to/lastmile_qr_scan,NO,NO,15,"KEY,CREDITCARD",104,DCA-CABI,,38.962524,-77.361902,2023/12/01 10:52:27+00,146015074
-77.0692806342251,38.8462313758084,28th St & S Meade St,classic,082546fc-1f3f-11e7-bf6b-3863bb334450,,2023/12/01 10:51:25+00,1,0,14,0,0,YES,YES,YES,YES,https://dc.lft.to/lastmile_qr_scan,https://dc.lft.to/lastmile_qr_scan,NO,NO,15,"KEY,CREDITCARD",41,DCA-CABI,,38.846222,-77.069275,2023/12/01 10:52:27+00,146015075
-77.0057300980005,38.8788622704869,1st & I St SE,classic,08251f03-1f3f-11e7-bf6b-3863bb334450,,2023/12/01 10:51:20+00,7,0,15,0,1,YES,YES,YES,YES,https://dc.lft.to/lastmile_qr_scan,https://dc.lft.to/lastmile_qr_scan,NO,NO,23,"KEY,CREDITCARD",42,DCA-CABI,,38.878854,-77.005727,2023/12/01 10:52:27+00,146015076
-76.9955041073625,38.9346059884431,John McCormack Dr & Michigan Ave NE,classic,08247cac-1f3f-11e7-bf6b-3863bb334450,,2023/12/01 10:51:23+00,7,0,4,1,0,YES,YES,YES,YES,https://dc.lft.to/lastmile_qr_scan,https://dc.lft.to/lastmile_qr_scan,NO,NO,11,"KEY,CREDITCARD",42,DCA-CABI,,38.9346,-76.9955,2023/12/01 10:52:27+00,146015077
-77.0279575047345,38.8983351795218,Metro Center / 12th & G St NW,classic,0824c604-1f3f-11e7-bf6b-3863bb334450,,2023/12/01 10:51:19+00,23,0,15,2,1,YES,YES,YES,YES,https://dc.lft.to/lastmile_qr_scan,https://dc.lft.to/lastmile_qr_scan,NO,NO,39,"KEY,CREDITCARD",42,DCA-CABI,,38.898326,-77.027959,2023/12/01 10:52:27+00,146015078
-77.1077322324762,38.8763984685276,N Quincy St & Glebe Rd,classic,08251bba-1f3f-11e7-bf6b-3863bb334450,,2023/12/01 10:51:27+00,9,0,1,0,1,YES,YES,YES,YES,https://dc.lft.to/lastmile_qr_scan,https://dc.lft.to/lastmile_qr_scan,NO,NO,12,"KEY,CREDITCARD",41,DCA-CABI,,38.876393,-77.107735,2023/12/01 10:52:27+00,146015079
-77.0934874961137,38.8847435067367,Washington Blvd & 10th St N,classic,082521d3-1f3f-11e7-bf6b-3863bb334450,,2023/12/01 10:51:17+00,14,0,1,0,0,YES,YES,YES,YES,https://dc.lft.to/lastmile_qr_scan,https://dc.lft.to/lastmile_qr_scan,NO,NO,15,"KEY,CREDITCARD",41,DCA-CABI,,38.884734,-77.093485,2023/12/01 10:52:27+00,146015080
-77.0063156136688,38.9836378624587,Maple & Ritchie Ave,classic,08258785-1f3f-11e7-bf6b-3863bb334450,,2023/12/01 10:51:17+00,0,0,19,1,0,YES,NO,NO,YES,https://dc.lft.to/lastmile_qr_scan,https://dc.lft.to/lastmile_qr_scan,NO,NO,19,"KEY,CREDITCARD",44,DCA-CABI,,38.983627,-77.006311,2023/12/01 10:52:27+00,146015081
-77.0176666167186,38.9126694765044,New Jersey Ave & R St NW,classic,08255427-1f3f-11e7-bf6b-3863bb334450,,2023/12/01 10:51:29+00,7,0,8,0,0,YES,YES,YES,YES,https://dc.lft.to/lastmile_qr_scan,https://dc.lft.to/lastmile_qr_scan,NO,NO,15,"KEY,CREDITCARD",42,DCA-CABI,,38.912659,-77.017669,2023/12/01 10:52:27+00,146015082
-77.0849152739762,38.8484641524643,S Kenmore St & 24th St S,classic,08254e55-1f3f-11e7-bf6b-3863bb334450,,2023/12/01 10:50:44+00,7,0,5,0,0,YES,YES,YES,YES,https://dc.lft.to/lastmile_qr_scan,https://dc.lft.to/lastmile_qr_scan,NO,NO,12,"KEY,CREDITCARD",41,DCA-CABI,,38.848454,-77.084918,2023/12/01 10:52:27+00,146015083
-76.9927860144647,38.8962303454456,Maryland Ave & E St NE,classic,082612c1-1f3f-11e7-bf6b-3863bb334450,,2023/12/01 10:51:18+00,19,0,5,0,1,YES,YES,YES,YES,https://dc.lft.to/lastmile_qr_scan,https://dc.lft.to/lastmile_qr_scan,NO,NO,27,"KEY,CREDITCARD",42,DCA-CABI,,38.896226,-76.992786,2023/12/01 10:52:27+00,146015084
-77.1207013720873,38.8788811121169,George Mason Dr & Wilson Blvd,classic,08252387-1f3f-11e7-bf6b-3863bb334450,,2023/12/01 10:50:57+00,10,0,4,0,1,YES,YES,YES,YES,https://dc.lft.to/lastmile_qr_scan,https://dc.lft.to/lastmile_qr_scan,NO,NO,15,"KEY,CREDITCARD",41,DCA-CABI,,38.87887,-77.1207,2023/12/01 10:52:27+00,146015085
-77.0349229781238,38.9036572451413,15th & L St NW,classic,0825fc3a-1f3f-11e7-bf6b-3863bb334450,,2023/12/01 10:49:35+00,10,0,13,3,0,YES,YES,YES,YES,https://dc.lft.to/lastmile_qr_scan,https://dc.lft.to/lastmile_qr_scan,NO,NO,23,"KEY,CREDITCARD",42,DCA-CABI,,38.903649,-77.034918,2023/12/01 10:52:27+00,146015086
-77.00272493999,38.9523793942396,Fort Totten Metro,classic,0825e27a-1f3f-11e7-bf6b-3863bb334450,,2023/12/01 10:49:34+00,9,0,10,5,0,YES,YES,YES,YES,https://dc.lft.to/lastmile_qr_scan,https://dc.lft.to/lastmile_qr_scan,NO,NO,19,"KEY,CREDITCARD",42,DCA-CABI,,38.952369,-77.002721,2023/12/01 10:52:27+00,146015087
-77.0877710136504,38.8849731522273,Barton St & 10th St N,classic,08254123-1f3f-11e7-bf6b-3863bb334450,,2023/12/01 10:49:34+00,3,0,8,0,1,YES,YES,YES,YES,https://dc.lft.to/lastmile_qr_scan,https://dc.lft.to/lastmile_qr_scan,NO,NO,12,"KEY,CREDITCARD",41,DCA-CABI,,38.884961,-77.08777,2023/12/01 10:52:27+00,146015088
-77.1136784412088,39.049774746315,Rockville Pike & Old Georgetown Rd,classic,68bb0313-ccdb-4930-98ba-96d77ec986ef,,2023/12/01 10:49:34+00,12,0,3,0,0,YES,YES,YES,YES,https://dc.lft.to/lastmile_qr_scan,https://dc.lft.to/lastmile_qr_scan,NO,NO,15,"KEY,CREDITCARD",43,DCA-CABI,,39.049765,-77.11368,2023/12/01 10:52:27+00,146015089
-77.0105571199252,38.8662862024577,Half & Water St SW,classic,d49c5d1b-d02b-4c35-b60d-ed3cc6d51479,,2023/12/01 10:49:35+00,12,0,2,0,0,YES,YES,YES,YES,https://dc.lft.to/lastmile_qr_scan,https://dc.lft.to/lastmile_qr_scan,NO,NO,15,"KEY,CREDITCARD",42,DCA-CABI,,38.866277,-77.010551,2023/12/01 10:52:27+00,146015090
-77.0500659483643,39.043135226112,Blueridge Ave & Elkin St,classic,ce78d5f4-486a-4a64-8518-5a10bfd7ef94,,2023/12/01 10:50:47+00,10,0,4,2,1,YES,YES,YES,YES,https://dc.lft.to/lastmile_qr_scan,https://dc.lft.to/lastmile_qr_scan,NO,NO,15,"KEY,CREDITCARD",44,DCA-CABI,,39.04313,-77.05006,2023/12/01 10:52:27+00,146015091
-77.1117730584432,38.8810520141317,Ballston Metro / Stuart St & 9th St N,classic,082526d1-1f3f-11e7-bf6b-3863bb334450,,2023/12/01 10:49:32+00,16,0,6,0,1,YES,YES,YES,YES,https://dc.lft.to/lastmile_qr_scan,https://dc.lft.to/lastmile_qr_scan,NO,NO,23,"KEY,CREDITCARD",41,DCA-CABI,,38.881044,-77.111768,2023/12/01 10:52:27+00,146015092
-76.9927279928019,38.8999958377334,10th & H St NE,classic,fe755eaf-7f1f-48df-bc40-f51d2af775d1,,2023/12/01 10:51:18+00,9,0,9,4,1,YES,YES,YES,YES,https://dc.lft.to/lastmile_qr_scan,https://dc.lft.to/lastmile_qr_scan,NO,NO,19,"KEY,CREDITCARD",42,DCA-CABI,,38.899984,-76.992725,2023/12/01 10:52:27+00,146015093
-77.3542838294067,38.9642200551937,Reston Pkwy & Spectrum Dr,classic,686c82c2-23fe-4c15-9c75-708f61de98c7,,2023/12/01 10:51:06+00,9,0,6,0,0,YES,YES,YES,YES,https://dc.lft.to/lastmile_qr_scan,https://dc.lft.to/lastmile_qr_scan,NO,NO,15,"KEY,CREDITCARD",104,DCA-CABI,,38.964208,-77.35428,2023/12/01 10:52:27+00,146015094
-77.053739196163,38.8134847750133,Braddock Rd Metro South,classic,c139589c-fe21-4834-a2a1-5528f7dd2152,,2023/12/01 10:49:39+00,12,0,7,1,0,YES,YES,YES,YES,https://dc.lft.to/lastmile_qr_scan,https://dc.lft.to/lastmile_qr_scan,NO,NO,19,"KEY,CREDITCARD",40,DCA-CABI,,38.813474,-77.053734,2023/12/01 10:52:27+00,146015095
-77.1099829714505,38.81136435143,S Jordan St & Venable St,classic,599f7a69-823e-419a-b70e-8f9666dd4bd1,,2023/12/01 10:49:39+00,13,0,2,0,0,YES,YES,YES,YES,https://dc.lft.to/lastmile_qr_scan,https://dc.lft.to/lastmile_qr_scan,NO,NO,15,"KEY,CREDITCARD",40,DCA-CABI,,38.811361,-77.109975,2023/12/01 10:52:27+00,146015096
-77.023093163365,38.8997055135112,8th & H St NW,classic,0824b9cc-1f3f-11e7-bf6b-3863bb334450,,2023/12/01 10:50:39+00,22,0,11,5,0,YES,YES,YES,YES,https://dc.lft.to/lastmile_qr_scan,https://dc.lft.to/lastmile_qr_scan,NO,NO,33,"KEY,CREDITCARD",42,DCA-CABI,,38.8997,-77.023086,2023/12/01 10:52:27+00,146015097
-76.9521026698519,38.865601226059,Fairfax Village,classic,0824f08b-1f3f-11e7-bf6b-3863bb334450,,2023/12/01 10:50:47+00,11,0,4,4,0,YES,YES,YES,YES,https://dc.lft.to/lastmile_qr_scan,https://dc.lft.to/lastmile_qr_scan,NO,NO,15,"KEY,CREDITCARD",42,DCA-CABI,,38.86559,-76.952103,2023/12/01 10:52:27+00,146015098
-77.0444036546191,38.9101040050565,Massachusetts Ave & Dupont Circle NW,classic,0824920a-1f3f-11e7-bf6b-3863bb334450,,2023/12/01 10:45:38+00,22,0,19,1,3,YES,NO,NO,YES,https://dc.lft.to/lastmile_qr_scan,https://dc.lft.to/lastmile_qr_scan,NO,NO,45,"KEY,CREDITCARD",42,DCA-CABI,,38.9101,-77.0444,2023/12/01 10:52:27+00,146015099
-77.0270852202854,38.9084427595621,11th & O St NW,classic,08261d35-1f3f-11e7-bf6b-3863bb334450,,2023/12/01 10:49:43+00,16,0,6,0,1,YES,YES,YES,YES,https://dc.lft.to/lastmile_qr_scan,https://dc.lft.to/lastmile_qr_scan,NO,NO,23,"KEY,CREDITCARD",42,DCA-CABI,,38.908431,-77.027088,2023/12/01 10:52:27+00,146015100
-77.0325029594287,38.9059100317936,Thomas Circle,classic,0824f8a2-1f3f-11e7-bf6b-3863bb334450,,2023/12/01 10:50:51+00,22,0,10,0,1,YES,YES,YES,YES,https://dc.lft.to/lastmile_qr_scan,https://dc.lft.to/lastmile_qr_scan,NO,NO,33,"KEY,CREDITCARD",42,DCA-CABI,,38.9059,-77.0325,2023/12/01 10:52:27+00,146015101
-77.1714932105212,39.1146973121039,King Farm Blvd & Pleasant Dr,classic,0825b738-1f3f-11e7-bf6b-3863bb334450,,2023/12/01 10:49:42+00,9,0,9,0,0,YES,YES,YES,YES,https://dc.lft.to/lastmile_qr_scan,https://dc.lft.to/lastmile_qr_scan,NO,NO,18,"KEY,CREDITCARD",43,DCA-CABI,,39.114688,-77.171487,2023/12/01 10:52:27+00,146015102
-77.0302316040331,38.8784441116416,Hains Point/Buckeye & Ohio Dr SW,classic,0825bb32-1f3f-11e7-bf6b-3863bb334450,,2023/12/01 10:51:10+00,11,0,4,0,1,YES,YES,YES,YES,https://dc.lft.to/lastmile_qr_scan,https://dc.lft.to/lastmile_qr_scan,NO,NO,17,"KEY,CREDITCARD",42,DCA-CABI,,38.878433,-77.03023,2023/12/01 10:52:27+00,146015103
-76.9259132505353,38.8974141975119,Division Ave & Foote St NE,classic,0826337e-1f3f-11e7-bf6b-3863bb334450,,2023/12/01 10:49:47+00,9,0,6,1,0,YES,YES,YES,YES,https://dc.lft.to/lastmile_qr_scan,https://dc.lft.to/lastmile_qr_scan,NO,NO,15,"KEY,CREDITCARD",42,DCA-CABI,,38.897407,-76.925907,2023/12/01 10:52:27+00,146015104
-76.9719261535664,38.9126404152723,24th & R St NE / National Arboretum,classic,08263311-1f3f-11e7-bf6b-3863bb334450,,2023/12/01 10:49:40+00,13,0,4,2,1,YES,YES,YES,YES,https://dc.lft.to/lastmile_qr_scan,https://dc.lft.to/lastmile_qr_scan,NO,NO,19,"KEY,CREDITCARD",42,DCA-CABI,,38.91263,-76.971923,2023/12/01 10:52:27+00,146015105
-76.9926680395784,38.9224986721628,10th St & Rhode Island Ave NE,classic,a62f9324-6f6e-4bdb-9206-3ca05517e607,,2023/12/01 10:51:06+00,19,0,0,0,0,YES,YES,YES,YES,https://dc.lft.to/lastmile_qr_scan,https://dc.lft.to/lastmile_qr_scan,NO,NO,19,"KEY,CREDITCARD",42,DCA-CABI,,38.922489,-76.99267,2023/12/01 10:52:27+00,146015106
-77.0415723947712,38.9188161092431,18th St & Wyoming Ave NW,classic,08254770-1f3f-11e7-bf6b-3863bb334450,,2023/12/01 10:51:28+00,17,0,6,0,0,YES,YES,YES,YES,https://dc.lft.to/lastmile_qr_scan,https://dc.lft.to/lastmile_qr_scan,NO,NO,23,"KEY,CREDITCARD",42,DCA-CABI,,38.918809,-77.041571,2023/12/01 10:52:27+00,146015107
-77.1539602366137,38.8780943049492,N Roosevelt St & Roosevelt Blvd,classic,5f19b359-6bc4-45f6-bdcf-31352690e6ee,,2023/12/01 10:49:49+00,8,0,3,0,1,YES,YES,YES,YES,https://dc.lft.to/lastmile_qr_scan,https://dc.lft.to/lastmile_qr_scan,NO,NO,12,"KEY,CREDITCARD",152,DCA-CABI,,38.878085,-77.153953,2023/12/01 10:52:27+00,146015108
-77.2303392256274,38.9224610678052,Greensboro & Pinnacle Dr,classic,730f282a-2f5b-4fda-b82f-5c94b3d5a2a6,,2023/12/01 10:49:52+00,11,0,2,0,0,YES,YES,YES,YES,https://dc.lft.to/lastmile_qr_scan,https://dc.lft.to/lastmile_qr_scan,NO,NO,13,"KEY,CREDITCARD",104,DCA-CABI,,38.92245,-77.23034,2023/12/01 10:52:27+00,146015109
-77.0386974752182,38.9121058865229,17th & Corcoran St NW,classic,08249549-1f3f-11e7-bf6b-3863bb334450,,2023/12/01 10:50:41+00,15,0,4,0,0,YES,YES,YES,YES,https://dc.lft.to/lastmile_qr_scan,https://dc.lft.to/lastmile_qr_scan,NO,NO,19,"KEY,CREDITCARD",42,DCA-CABI,,38.9121,-77.0387,2023/12/01 10:52:27+00,146015110
-77.0049486410948,38.9109771393928,Eckington Pl & Q St NE,classic,0824bc00-1f3f-11e7-bf6b-3863bb334450,,2023/12/01 10:51:14+00,16,0,7,0,0,YES,YES,YES,YES,https://dc.lft.to/lastmile_qr_scan,https://dc.lft.to/lastmile_qr_scan,NO,NO,23,"KEY,CREDITCARD",42,DCA-CABI,,38.910972,-77.00495,2023/12/01 10:52:27+00,146015111
-77.0978862552896,38.9993884565188,Medical Center Metro ,classic,0826168f-1f3f-11e7-bf6b-3863bb334450,,2023/12/01 10:51:12+00,17,0,2,0,0,YES,YES,YES,YES,https://dc.lft.to/lastmile_qr_scan,https://dc.lft.to/lastmile_qr_scan,NO,NO,19,"KEY,CREDITCARD",44,DCA-CABI,,38.999378,-77.097882,2023/12/01 10:52:27+00,146015112
-77.0153594195256,38.9073368628773,New Jersey Ave & N St NW/Dunbar HS,classic,0825b983-1f3f-11e7-bf6b-3863bb334450,,2023/12/01 10:49:48+00,2,0,14,3,1,YES,YES,YES,YES,https://dc.lft.to/lastmile_qr_scan,https://dc.lft.to/lastmile_qr_scan,NO,NO,19,"KEY,CREDITCARD",42,DCA-CABI,,38.907333,-77.01536,2023/12/01 10:52:27+00,146015113
-77.0344490840428,38.9011440542281,Vermont Ave & I St NW,classic,08263241-1f3f-11e7-bf6b-3863bb334450,,2023/12/01 10:49:48+00,7,0,18,9,0,YES,YES,YES,YES,https://dc.lft.to/lastmile_qr_scan,https://dc.lft.to/lastmile_qr_scan,NO,NO,25,"KEY,CREDITCARD",42,DCA-CABI,,38.901136,-77.034451,2023/12/01 10:52:27+00,146015114
-77.0682072959445,38.9164524225154,34th St & Wisconsin Ave NW,classic,0824a988-1f3f-11e7-bf6b-3863bb334450,,2023/12/01 10:49:40+00,11,0,0,0,0,YES,YES,YES,YES,https://dc.lft.to/lastmile_qr_scan,https://dc.lft.to/lastmile_qr_scan,NO,NO,11,"KEY,CREDITCARD",42,DCA-CABI,,38.916442,-77.0682,2023/12/01 10:52:27+00,146015115
-77.3044426055488,38.8494223002549,University Dr & Democracy Ln,classic,1875304680551764838,,2023/12/01 10:49:40+00,2,0,10,1,0,YES,YES,YES,YES,https://dc.lft.to/lastmile_qr_scan,https://dc.lft.to/lastmile_qr_scan,NO,NO,12,"KEY,CREDITCARD",,DCA-CABI,,38.849411,-77.304435,2023/12/01 10:52:27+00,146015116
-77.0433838789389,38.9016365374999,19th & I St NW,classic,08253908-1f3f-11e7-bf6b-3863bb334450,,2023/12/01 10:50:37+00,10,0,13,4,1,YES,YES,YES,YES,https://dc.lft.to/lastmile_qr_scan,https://dc.lft.to/lastmile_qr_scan,NO,NO,23,"KEY,CREDITCARD",42,DCA-CABI,,38.901633,-77.043386,2023/12/01 10:52:27+00,146015117
-77.080954078848,38.8905452570647,15th St & N Scott St,classic,082525bb-1f3f-11e7-bf6b-3863bb334450,,2023/12/01 10:49:56+00,12,0,3,0,0,YES,YES,YES,YES,https://dc.lft.to/lastmile_qr_scan,https://dc.lft.to/lastmile_qr_scan,NO,NO,15,"KEY,CREDITCARD",41,DCA-CABI,,38.89054,-77.08095,2023/12/01 10:52:27+00,146015118
-77.1798360087613,38.8883809575412,N Oak St & W Broad St,classic,edb40673-8b68-4db1-b9bf-6cb7943fdb50,,2023/12/01 10:50:15+00,9,0,3,0,0,YES,YES,YES,YES,https://dc.lft.to/lastmile_qr_scan,https://dc.lft.to/lastmile_qr_scan,NO,NO,12,"KEY,CREDITCARD",152,DCA-CABI,,38.88837,-77.179832,2023/12/01 10:52:27+00,146015119
-77.0761333000409,38.866478060886,Rolfe St & 9th St S,classic,0825e443-1f3f-11e7-bf6b-3863bb334450,,2023/12/01 10:50:15+00,7,0,4,1,0,YES,YES,YES,YES,https://dc.lft.to/lastmile_qr_scan,https://dc.lft.to/lastmile_qr_scan,NO,NO,11,"KEY,CREDITCARD",41,DCA-CABI,,38.866471,-77.076131,2023/12/01 10:52:27+00,146015120
-77.0278197838308,38.9294680282039,11th & Kenyon St NW,classic,08247522-1f3f-11e7-bf6b-3863bb334450,,2023/12/01 10:50:55+00,22,0,15,0,2,YES,YES,YES,YES,https://dc.lft.to/lastmile_qr_scan,https://dc.lft.to/lastmile_qr_scan,NO,NO,39,"KEY,CREDITCARD",42,DCA-CABI,,38.929464,-77.027822,2023/12/01 10:52:27+00,146015121
-77.0294235428176,38.9870034033235,13th St & Eastern Ave,classic,08254ebb-1f3f-11e7-bf6b-3863bb334450,,2023/12/01 10:50:16+00,7,0,8,5,0,YES,YES,YES,YES,https://dc.lft.to/lastmile_qr_scan,https://dc.lft.to/lastmile_qr_scan,NO,NO,15,"KEY,CREDITCARD",44,DCA-CABI,,38.987,-77.029417,2023/12/01 10:52:27+00,146015122
-76.9607493787977,38.8779549766083,Randle Circle & Minnesota Ave SE,classic,1866861591028457548,,2023/12/01 10:51:27+00,3,0,8,1,0,YES,YES,YES,YES,https://dc.lft.to/lastmile_qr_scan,https://dc.lft.to/lastmile_qr_scan,NO,NO,11,"KEY,CREDITCARD",,DCA-CABI,,38.87795,-76.96075,2023/12/01 10:52:27+00,146015123
-77.0635878627961,38.9085006616049,Wisconsin Ave & O St NW,classic,08254f20-1f3f-11e7-bf6b-3863bb334450,,2023/12/01 10:51:26+00,11,0,7,4,1,YES,YES,YES,YES,https://dc.lft.to/lastmile_qr_scan,https://dc.lft.to/lastmile_qr_scan,NO,NO,19,"KEY,CREDITCARD",42,DCA-CABI,,38.90849,-77.063586,2023/12/01 10:52:27+00,146015124
-77.199795621176,38.8663679823117,Arlington Blvd & Allen St,classic,79f2ceeb-df84-42dd-bf22-ceb9bc384af2,,2023/12/01 10:50:14+00,1,0,11,8,0,YES,YES,YES,YES,https://dc.lft.to/lastmile_qr_scan,https://dc.lft.to/lastmile_qr_scan,NO,NO,12,"KEY,CREDITCARD",104,DCA-CABI,,38.866361,-77.199788,2023/12/01 10:52:27+00,146015125
-77.0026038858076,38.7968043698245,Tanger Outlets,classic,fc64c842-980f-40be-a4b6-7750a28ecc19,,2023/12/01 10:50:14+00,0,1,14,4,0,YES,YES,YES,YES,https://dc.lft.to/lastmile_qr_scan,https://dc.lft.to/lastmile_qr_scan,NO,NO,15,"KEY,CREDITCARD",133,DCA-CABI,,38.7968,-77.0026,2023/12/01 10:52:27+00,146015126
-77.111526955258,38.8563241471585,Arlington Mill Cmty Center / Columbia Pike & S Dinwiddie St,classic,08257239-1f3f-11e7-bf6b-3863bb334450,,2023/12/01 10:51:28+00,7,0,8,1,0,YES,YES,YES,YES,https://dc.lft.to/lastmile_qr_scan,https://dc.lft.to/lastmile_qr_scan,NO,NO,15,"KEY,CREDITCARD",41,DCA-CABI,,38.856319,-77.11153,2023/12/01 10:52:27+00,146015127
-76.9970737975396,38.9079143704083,Union Market,classic,0825fe4c-1f3f-11e7-bf6b-3863bb334450,,2023/12/01 10:50:39+00,17,0,5,0,1,YES,YES,YES,YES,https://dc.lft.to/lastmile_qr_scan,https://dc.lft.to/lastmile_qr_scan,NO,NO,23,"KEY,CREDITCARD",42,DCA-CABI,,38.907908,-76.99707,2023/12/01 10:52:27+00,146015128
-77.0447833922556,38.9089147584586,20th & O St NW / Dupont South,classic,0824c8d2-1f3f-11e7-bf6b-3863bb334450,,2023/12/01 10:50:50+00,19,0,0,0,0,YES,YES,YES,YES,https://dc.lft.to/lastmile_qr_scan,https://dc.lft.to/lastmile_qr_scan,NO,NO,19,"KEY,CREDITCARD",42,DCA-CABI,,38.908905,-77.04478,2023/12/01 10:52:27+00,146015129
-77.0428240361136,38.8140388097214,N Pitt St & Montgomery St,classic,1e196ee1-daa4-4fa6-b6f8-197b31e6d170,,2023/12/01 10:50:46+00,4,0,11,7,0,YES,YES,YES,YES,https://dc.lft.to/lastmile_qr_scan,https://dc.lft.to/lastmile_qr_scan,NO,NO,15,"KEY,CREDITCARD",40,DCA-CABI,,38.814031,-77.042817,2023/12/01 10:52:27+00,146015130
-77.0271148173654,38.925639659941,11th & Girard St NW,classic,cd1394fa-9d06-4665-bd1c-d7580d97a550,,2023/12/01 10:50:06+00,6,0,13,0,0,YES,YES,YES,YES,https://dc.lft.to/lastmile_qr_scan,https://dc.lft.to/lastmile_qr_scan,NO,NO,19,"KEY,CREDITCARD",42,DCA-CABI,,38.925636,-77.027112,2023/12/01 10:52:27+00,146015131
-77.0047531108868,38.9181658000392,Rhode Island Ave & V St NE,classic,08256b90-1f3f-11e7-bf6b-3863bb334450,,2023/12/01 10:51:07+00,14,0,5,3,0,YES,YES,YES,YES,https://dc.lft.to/lastmile_qr_scan,https://dc.lft.to/lastmile_qr_scan,NO,NO,19,"KEY,CREDITCARD",42,DCA-CABI,,38.918155,-77.004746,2023/12/01 10:52:27+00,146015132
-77.0555776109182,38.8972983502324,Kennedy Center,classic,08249e19-1f3f-11e7-bf6b-3863bb334450,,2023/12/01 10:50:07+00,3,0,16,3,0,YES,YES,YES,YES,https://dc.lft.to/lastmile_qr_scan,https://dc.lft.to/lastmile_qr_scan,NO,NO,19,"KEY,CREDITCARD",42,DCA-CABI,,38.897293,-77.05557,2023/12/01 10:52:27+00,146015133
-77.0498820675212,38.8961118167468,23rd & E St NW ,classic,0824e7c1-1f3f-11e7-bf6b-3863bb334450,,2023/12/01 10:51:00+00,5,0,13,4,1,YES,YES,YES,YES,https://dc.lft.to/lastmile_qr_scan,https://dc.lft.to/lastmile_qr_scan,NO,NO,19,"KEY,CREDITCARD",42,DCA-CABI,,38.896104,-77.049882,2023/12/01 10:52:27+00,146015134
-76.9691809194837,38.8616703037464,Marion Barry Ave & Naylor Rd SE,classic,08247ed8-1f3f-11e7-bf6b-3863bb334450,,2023/12/01 10:50:07+00,7,0,12,0,0,YES,YES,YES,YES,https://dc.lft.to/lastmile_qr_scan,https://dc.lft.to/lastmile_qr_scan,NO,NO,19,"KEY,CREDITCARD",42,DCA-CABI,,38.861663,-76.969184,2023/12/01 10:52:27+00,146015135
-77.0226838797447,38.9177222864473,8th & V St NW,classic,3900eddf-b06d-4763-af70-1126603508d0,,2023/12/01 10:51:28+00,17,0,1,0,1,YES,YES,YES,YES,https://dc.lft.to/lastmile_qr_scan,https://dc.lft.to/lastmile_qr_scan,NO,NO,19,"KEY,CREDITCARD",42,DCA-CABI,,38.917716,-77.022684,2023/12/01 10:52:27+00,146015136
-76.9910175797516,38.9336778745621,12th & Newton St NE,classic,08249c5a-1f3f-11e7-bf6b-3863bb334450,,2023/12/01 10:51:00+00,11,0,0,0,0,YES,YES,YES,YES,https://dc.lft.to/lastmile_qr_scan,https://dc.lft.to/lastmile_qr_scan,NO,NO,11,"KEY,CREDITCARD",42,DCA-CABI,,38.933668,-76.991016,2023/12/01 10:52:27+00,146015137
-77.1649755077298,39.1213365265213,Shady Grove Metro East,classic,08265563-1f3f-11e7-bf6b-3863bb334450,,2023/12/01 10:51:25+00,10,0,8,0,0,YES,YES,YES,YES,https://dc.lft.to/lastmile_qr_scan,https://dc.lft.to/lastmile_qr_scan,NO,NO,19,"KEY,CREDITCARD",43,DCA-CABI,,39.121327,-77.164969,2023/12/01 10:52:27+00,146015138
-77.0445679361956,39.0253914522364,Dennis Ave & Amherst Ave,classic,08259e6f-1f3f-11e7-bf6b-3863bb334450,,2023/12/01 10:50:09+00,10,0,5,0,0,YES,YES,YES,YES,https://dc.lft.to/lastmile_qr_scan,https://dc.lft.to/lastmile_qr_scan,NO,NO,15,"KEY,CREDITCARD",44,DCA-CABI,,39.025387,-77.044563,2023/12/01 10:52:27+00,146015139
-77.0713056398853,38.8899299674875,Iwo Jima Memorial / Meade & 14th St N,classic,0825f344-1f3f-11e7-bf6b-3863bb334450,,2023/12/01 10:50:10+00,15,0,4,3,0,YES,YES,YES,YES,https://dc.lft.to/lastmile_qr_scan,https://dc.lft.to/lastmile_qr_scan,NO,NO,19,"KEY,CREDITCARD",41,DCA-CABI,,38.88992,-77.071301,2023/12/01 10:52:27+00,146015140
-77.0060756741362,38.8768984228325,1st & M St SE,classic,5f71434d-dc5c-45ff-8219-708a3d9a0691,,2023/12/01 10:50:55+00,14,0,25,5,0,YES,YES,YES,YES,https://dc.lft.to/lastmile_qr_scan,https://dc.lft.to/lastmile_qr_scan,NO,NO,39,"KEY,CREDITCARD",42,DCA-CABI,,38.876893,-77.006072,2023/12/01 10:52:27+00,146015141
-77.3316540082449,38.9339283353644,Ridge Heights and Owl Cove Ln,classic,f75a76bb-34fc-4ee3-81d9-f23d9867017d,,2023/12/01 10:50:49+00,6,0,6,0,0,YES,YES,YES,YES,https://dc.lft.to/lastmile_qr_scan,https://dc.lft.to/lastmile_qr_scan,NO,NO,12,"KEY,CREDITCARD",104,DCA-CABI,,38.933923,-77.331653,2023/12/01 10:52:27+00,146015142
-77.1207809209313,39.0620456516516,Twinbrook Metro,classic,e581e0b6-51ea-416a-9ae7-6fe5219d7156,,2023/12/01 10:50:05+00,13,0,1,0,0,YES,YES,YES,YES,https://dc.lft.to/lastmile_qr_scan,https://dc.lft.to/lastmile_qr_scan,NO,NO,14,"KEY,CREDITCARD",43,DCA-CABI,,39.062041,-77.120776,2023/12/01 10:52:27+00,146015143
-77.0889904387787,38.827678601673,King St & W Braddock Rd,classic,50cce12f-505a-414c-8b58-5bd4204a385e,,2023/12/01 10:50:47+00,4,0,11,0,0,YES,YES,YES,YES,https://dc.lft.to/lastmile_qr_scan,https://dc.lft.to/lastmile_qr_scan,NO,NO,15,"KEY,CREDITCARD",40,DCA-CABI,,38.827674,-77.088985,2023/12/01 10:52:27+00,146015144
-77.0320932484111,38.9177741308642,14th & V St NW,classic,0824749f-1f3f-11e7-bf6b-3863bb334450,,2023/12/01 10:50:07+00,11,0,18,0,2,YES,YES,YES,YES,https://dc.lft.to/lastmile_qr_scan,https://dc.lft.to/lastmile_qr_scan,NO,NO,31,"KEY,CREDITCARD",42,DCA-CABI,,38.917765,-77.032096,2023/12/01 10:52:27+00,146015145
-76.9811615201803,39.0449550458177,Stewart & April,classic,52ba8179-5dda-404f-abba-796b3f645434,,2023/12/01 10:50:08+00,10,0,9,0,0,YES,YES,YES,YES,https://dc.lft.to/lastmile_qr_scan,https://dc.lft.to/lastmile_qr_scan,NO,NO,19,"KEY,CREDITCARD",44,DCA-CABI,,39.044944,-76.981155,2023/12/01 10:52:27+00,146015146
-77.0936744567368,38.8603485874581,Columbia Pike & Monroe St,classic,08254c82-1f3f-11e7-bf6b-3863bb334450,,2023/12/01 10:50:08+00,7,0,5,4,0,YES,YES,YES,YES,https://dc.lft.to/lastmile_qr_scan,https://dc.lft.to/lastmile_qr_scan,NO,NO,12,"KEY,CREDITCARD",41,DCA-CABI,,38.860344,-77.093672,2023/12/01 10:52:27+00,146015147
-76.9982732248956,38.8929425006527,Massachusetts Ave & 6th St NE,classic,880978b9-5084-4576-a206-8d94cdbf4427,,2023/12/01 10:50:10+00,14,0,3,0,2,YES,YES,YES,YES,https://dc.lft.to/lastmile_qr_scan,https://dc.lft.to/lastmile_qr_scan,NO,NO,19,"KEY,CREDITCARD",42,DCA-CABI,,38.892934,-76.998273,2023/12/01 10:52:27+00,146015148
-77.0054954132169,38.8244873697095,1st & S Capitol St SE / Oxon Run Trail,classic,c778c501-ba47-479b-b652-831432ffd74f,,2023/12/01 10:50:10+00,8,0,10,2,1,YES,YES,YES,YES,https://dc.lft.to/lastmile_qr_scan,https://dc.lft.to/lastmile_qr_scan,NO,NO,19,"KEY,CREDITCARD",42,DCA-CABI,,38.824481,-77.005497,2023/12/01 10:52:27+00,146015149
-77.0938865951137,38.8201616932109,Virginia Theological Seminary,classic,b0cdb0b4-a4e5-47f2-90fd-f3f8266b809f,,2023/12/01 10:51:25+00,6,0,5,0,0,YES,YES,YES,YES,https://dc.lft.to/lastmile_qr_scan,https://dc.lft.to/lastmile_qr_scan,NO,NO,11,"KEY,CREDITCARD",40,DCA-CABI,,38.820152,-77.093879,2023/12/01 10:52:27+00,146015150
-77.0398009662114,38.9060068653016,Rhode Island & Connecticut Ave NW,classic,0824f644-1f3f-11e7-bf6b-3863bb334450,,2023/12/01 10:51:06+00,8,0,15,2,0,YES,YES,YES,YES,https://dc.lft.to/lastmile_qr_scan,https://dc.lft.to/lastmile_qr_scan,NO,NO,23,"KEY,CREDITCARD",42,DCA-CABI,,38.905996,-77.039802,2023/12/01 10:52:27+00,146015151
-77.0335128158722,38.9694993195933,14th St & Luzon Ave NW,classic,eda09ed8-ca5e-4187-938c-3260cabdf82d,,2023/12/01 10:50:11+00,10,0,8,0,1,YES,YES,YES,YES,https://dc.lft.to/lastmile_qr_scan,https://dc.lft.to/lastmile_qr_scan,NO,NO,19,"KEY,CREDITCARD",42,DCA-CABI,,38.969489,-77.033509,2023/12/01 10:52:27+00,146015152
-77.0793807908232,38.9476141203464,Tenleytown / Wisconsin Ave & Albemarle St NW,classic,08249f58-1f3f-11e7-bf6b-3863bb334450,,2023/12/01 10:51:07+00,11,0,3,2,0,YES,YES,YES,YES,https://dc.lft.to/lastmile_qr_scan,https://dc.lft.to/lastmile_qr_scan,NO,NO,15,"KEY,CREDITCARD",42,DCA-CABI,,38.947607,-77.079382,2023/12/01 10:52:27+00,146015153
-77.0135041870932,38.9126069734069,Florida Ave & R St NW,classic,0824960b-1f3f-11e7-bf6b-3863bb334450,,2023/12/01 10:51:08+00,3,0,11,0,1,YES,YES,YES,YES,https://dc.lft.to/lastmile_qr_scan,https://dc.lft.to/lastmile_qr_scan,NO,NO,15,"KEY,CREDITCARD",42,DCA-CABI,,38.9126,-77.0135,2023/12/01 10:52:27+00,146015154
-77.036250087961,38.9288981935976,16th & Irving St NW,classic,082617d2-1f3f-11e7-bf6b-3863bb334450,,2023/12/01 10:50:02+00,5,0,11,2,3,YES,YES,YES,YES,https://dc.lft.to/lastmile_qr_scan,https://dc.lft.to/lastmile_qr_scan,NO,NO,19,"KEY,CREDITCARD",42,DCA-CABI,,38.928893,-77.03625,2023/12/01 10:52:27+00,146015155
-76.9947456264821,38.8972844287555,8th & F St NE,classic,082554fb-1f3f-11e7-bf6b-3863bb334450,,2023/12/01 10:51:02+00,17,1,5,2,0,YES,YES,YES,YES,https://dc.lft.to/lastmile_qr_scan,https://dc.lft.to/lastmile_qr_scan,NO,NO,23,"KEY,CREDITCARD",42,DCA-CABI,,38.897274,-76.994749,2023/12/01 10:52:27+00,146015156
-77.0723016626069,38.8946047020849,Wilson Blvd & Ft Myer Dr,classic,0824eb1b-1f3f-11e7-bf6b-3863bb334450,,2023/12/01 10:50:59+00,11,0,8,1,0,YES,YES,YES,YES,https://dc.lft.to/lastmile_qr_scan,https://dc.lft.to/lastmile_qr_scan,NO,NO,19,"KEY,CREDITCARD",41,DCA-CABI,,38.8946,-77.072305,2023/12/01 10:52:27+00,146015157
-77.0935199917278,38.9798802470358,Woodmont Ave & Strathmore St,classic,0826190f-1f3f-11e7-bf6b-3863bb334450,,2023/12/01 10:51:09+00,7,0,4,2,0,YES,YES,YES,YES,https://dc.lft.to/lastmile_qr_scan,https://dc.lft.to/lastmile_qr_scan,NO,NO,11,"KEY,CREDITCARD",44,DCA-CABI,,38.979875,-77.093522,2023/12/01 10:52:27+00,146015158
-77.0022621659397,38.9112204475771,Tanner Park,classic,177f7198-8814-4068-b809-b6074346d2e9,,2023/12/01 10:50:04+00,12,0,5,0,2,YES,YES,YES,YES,https://dc.lft.to/lastmile_qr_scan,https://dc.lft.to/lastmile_qr_scan,NO,NO,19,"KEY,CREDITCARD",42,DCA-CABI,,38.911214,-77.002257,2023/12/01 10:52:27+00,146015159
-77.0980343369186,38.9895513772475,Cordell & Norfolk Ave,classic,08258395-1f3f-11e7-bf6b-3863bb334450,,2023/12/01 10:49:59+00,8,0,3,0,0,YES,YES,YES,YES,https://dc.lft.to/lastmile_qr_scan,https://dc.lft.to/lastmile_qr_scan,NO,NO,11,"KEY,CREDITCARD",44,DCA-CABI,,38.98954,-77.098029,2023/12/01 10:52:27+00,146015160
-77.08890730721,38.8904043484712,Wilson Blvd & N Franklin Rd,classic,0824fb6c-1f3f-11e7-bf6b-3863bb334450,,2023/12/01 10:49:57+00,7,0,4,3,1,YES,YES,YES,YES,https://dc.lft.to/lastmile_qr_scan,https://dc.lft.to/lastmile_qr_scan,NO,NO,12,"KEY,CREDITCARD",41,DCA-CABI,,38.8904,-77.0889,2023/12/01 10:52:27+00,146015161
-77.0617178945374,38.8127151055221,Commonwealth Ave & Oak St,classic,08262027-1f3f-11e7-bf6b-3863bb334450,,2023/12/01 10:50:56+00,2,1,12,0,0,YES,YES,YES,YES,https://dc.lft.to/lastmile_qr_scan,https://dc.lft.to/lastmile_qr_scan,NO,NO,15,"KEY,CREDITCARD",40,DCA-CABI,,38.812711,-77.061715,2023/12/01 10:52:27+00,146015162
-77.0518385269794,38.9233972443062,Woodley Park Metro / Calvert St & Connecticut Ave NW,classic,efe6a4e1-5900-46d6-9755-db074f87c5c2,,2023/12/01 10:50:20+00,9,0,10,2,2,YES,YES,YES,YES,https://dc.lft.to/lastmile_qr_scan,https://dc.lft.to/lastmile_qr_scan,NO,NO,23,"KEY,CREDITCARD",42,DCA-CABI,,38.923389,-77.051833,2023/12/01 10:52:27+00,146015163
-77.1734388118401,38.8836071720058,W Broad St & Little Falls St,classic,f4402219-23c9-43ce-8af4-62984ee9ab68,,2023/12/01 10:51:09+00,1,0,11,1,0,YES,YES,YES,YES,https://dc.lft.to/lastmile_qr_scan,https://dc.lft.to/lastmile_qr_scan,NO,NO,12,"KEY,CREDITCARD",152,DCA-CABI,,38.883601,-77.173438,2023/12/01 10:52:27+00,146015164
-77.3377770594948,38.9360728076146,Ridge Heights Rd & Seahawks Dr,classic,071dcbf5-3f1e-45e0-a4a5-8717adb8743f,,2023/12/01 10:50:23+00,8,0,4,1,0,YES,YES,YES,YES,https://dc.lft.to/lastmile_qr_scan,https://dc.lft.to/lastmile_qr_scan,NO,NO,12,"KEY,CREDITCARD",104,DCA-CABI,,38.936061,-77.337775,2023/12/01 10:52:27+00,146015165
-77.0446029799029,38.9154098417214,20th St & Florida Ave NW,classic,0824854e-1f3f-11e7-bf6b-3863bb334450,,2023/12/01 10:51:13+00,10,0,4,2,1,YES,YES,YES,YES,https://dc.lft.to/lastmile_qr_scan,https://dc.lft.to/lastmile_qr_scan,NO,NO,15,"KEY,CREDITCARD",42,DCA-CABI,,38.9154,-77.0446,2023/12/01 10:52:27+00,146015166
-76.9680905342868,38.9553568093059,West Hyattsville Metro,classic,cdaa435b-2b99-442a-a274-d6682067ad88,,2023/12/01 10:51:21+00,7,0,10,2,0,YES,YES,YES,YES,https://dc.lft.to/lastmile_qr_scan,https://dc.lft.to/lastmile_qr_scan,NO,NO,17,"KEY,CREDITCARD",133,DCA-CABI,,38.955349,-76.968084,2023/12/01 10:52:27+00,146015167
-76.9945388868611,39.0379931691509,Oak Leaf & Lockwood,classic,90682a3e-9cb2-43d1-b104-61c50043d35b,,2023/12/01 10:51:01+00,8,0,10,3,0,YES,YES,YES,YES,https://dc.lft.to/lastmile_qr_scan,https://dc.lft.to/lastmile_qr_scan,NO,NO,19,"KEY,CREDITCARD",44,DCA-CABI,,39.037981,-76.994539,2023/12/01 10:52:27+00,146015168
-77.0821098712049,38.8732303195814,Washington Blvd & Walter Reed Dr ,classic,0825bf2b-1f3f-11e7-bf6b-3863bb334450,,2023/12/01 10:50:22+00,3,0,11,1,0,YES,YES,YES,YES,https://dc.lft.to/lastmile_qr_scan,https://dc.lft.to/lastmile_qr_scan,NO,NO,15,"KEY,CREDITCARD",41,DCA-CABI,,38.873219,-77.082104,2023/12/01 10:52:27+00,146015169
-77.0239226521752,38.8981018580801,9th & G St NW,classic,a10f8bfa-1324-411c-b358-3fbd94eff32b,,2023/12/01 10:50:44+00,11,0,4,1,0,YES,YES,YES,YES,https://dc.lft.to/lastmile_qr_scan,https://dc.lft.to/lastmile_qr_scan,NO,NO,15,"KEY,CREDITCARD",42,DCA-CABI,,38.898097,-77.023924,2023/12/01 10:52:27+00,146015170
-77.0652453926735,38.9055179834721,Potomac & M St NW,classic,082655cc-1f3f-11e7-bf6b-3863bb334450,,2023/12/01 10:50:18+00,2,0,16,3,1,YES,YES,YES,YES,https://dc.lft.to/lastmile_qr_scan,https://dc.lft.to/lastmile_qr_scan,NO,NO,19,"KEY,CREDITCARD",42,DCA-CABI,,38.905509,-77.065246,2023/12/01 10:52:27+00,146015171
-76.9785229552959,38.8693475648925,Minnesota Ave & R St SE,classic,0541e06c-642c-4f31-9f24-19bfcbb8811d,,2023/12/01 10:50:21+00,15,0,4,0,0,YES,YES,YES,YES,https://dc.lft.to/lastmile_qr_scan,https://dc.lft.to/lastmile_qr_scan,NO,NO,19,"KEY,CREDITCARD",42,DCA-CABI,,38.869337,-76.978519,2023/12/01 10:52:27+00,146015172
-77.0239790106342,38.8942913074024,9th St & Pennsylvania Ave NW,classic,5d8b76d9-ae82-464b-87f1-37553a9fec6c,,2023/12/01 10:50:40+00,16,0,11,1,0,YES,YES,YES,YES,https://dc.lft.to/lastmile_qr_scan,https://dc.lft.to/lastmile_qr_scan,NO,NO,27,"KEY,CREDITCARD",42,DCA-CABI,,38.89428,-77.023979,2023/12/01 10:52:27+00,146015173
-77.0483976819208,39.0359744805863,Amherst Ave & Prichard Rd,classic,082651f8-1f3f-11e7-bf6b-3863bb334450,,2023/12/01 10:50:40+00,15,0,0,0,0,YES,YES,YES,YES,https://dc.lft.to/lastmile_qr_scan,https://dc.lft.to/lastmile_qr_scan,NO,NO,15,"KEY,CREDITCARD",44,DCA-CABI,,39.035965,-77.048395,2023/12/01 10:52:27+00,146015174
-77.0443360711732,38.8941232037909,Virginia Ave & C St NW,classic,0824f16b-1f3f-11e7-bf6b-3863bb334450,,2023/12/01 10:51:19+00,6,0,9,1,0,YES,YES,YES,YES,https://dc.lft.to/lastmile_qr_scan,https://dc.lft.to/lastmile_qr_scan,NO,NO,15,"KEY,CREDITCARD",42,DCA-CABI,,38.894112,-77.044334,2023/12/01 10:52:27+00,146015175
-77.0260660427013,38.8959213750101,10th & E St NW,classic,08253e7e-1f3f-11e7-bf6b-3863bb334450,,2023/12/01 10:50:24+00,1,0,13,1,1,YES,YES,YES,YES,https://dc.lft.to/lastmile_qr_scan,https://dc.lft.to/lastmile_qr_scan,NO,NO,15,"KEY,CREDITCARD",42,DCA-CABI,,38.895914,-77.026064,2023/12/01 10:52:27+00,146015176
-76.9993802525278,38.8432341048211,Alabama & MLK Ave SE,classic,082564e2-1f3f-11e7-bf6b-3863bb334450,,2023/12/01 10:50:24+00,4,0,7,3,0,YES,YES,YES,YES,https://dc.lft.to/lastmile_qr_scan,https://dc.lft.to/lastmile_qr_scan,NO,NO,11,"KEY,CREDITCARD",42,DCA-CABI,,38.84323,-76.999376,2023/12/01 10:52:27+00,146015177
-77.0748913942572,38.890873603203,Arlington Blvd & Ft Myer Dr,classic,199ecf43-3fcc-446e-8b91-e151e7ad617f,,2023/12/01 10:51:18+00,12,0,2,0,1,YES,YES,YES,YES,https://dc.lft.to/lastmile_qr_scan,https://dc.lft.to/lastmile_qr_scan,NO,NO,15,"KEY,CREDITCARD",41,DCA-CABI,,38.890863,-77.074893,2023/12/01 10:52:27+00,146015178
-76.9409860515564,38.8762350668525,Ridge Rd Community Center,classic,db81ad06-aad3-4e23-b2b9-05b39b41f8fc,,2023/12/01 10:50:25+00,16,0,3,0,0,YES,YES,YES,YES,https://dc.lft.to/lastmile_qr_scan,https://dc.lft.to/lastmile_qr_scan,NO,NO,19,"KEY,CREDITCARD",42,DCA-CABI,,38.876227,-76.940981,2023/12/01 10:52:27+00,146015179
-77.1670560551607,39.1258375521472,Columbus Ave & Tribeca St,classic,9029233f-84db-4f28-895d-8ecf727fb6d2,,2023/12/01 10:51:09+00,8,0,3,0,0,YES,YES,YES,YES,https://dc.lft.to/lastmile_qr_scan,https://dc.lft.to/lastmile_qr_scan,NO,NO,11,"KEY,CREDITCARD",43,DCA-CABI,,39.125828,-77.167059,2023/12/01 10:52:27+00,146015180
-77.0032073781702,38.905698309003,M St & Delaware Ave NE,classic,0825459a-1f3f-11e7-bf6b-3863bb334450,,2023/12/01 10:50:35+00,19,0,2,1,1,YES,YES,YES,YES,https://dc.lft.to/lastmile_qr_scan,https://dc.lft.to/lastmile_qr_scan,NO,NO,23,"KEY,CREDITCARD",42,DCA-CABI,,38.905691,-77.003201,2023/12/01 10:52:27+00,146015181
-76.9556859774056,38.9216527266081,Fort Lincoln Dr & 33rd Pl NE,classic,c9760156-83bd-4a7d-9dfa-85d7ee463f62,,2023/12/01 10:50:27+00,7,0,8,0,0,YES,YES,YES,YES,https://dc.lft.to/lastmile_qr_scan,https://dc.lft.to/lastmile_qr_scan,NO,NO,15,"KEY,CREDITCARD",42,DCA-CABI,,38.921641,-76.955687,2023/12/01 10:52:27+00,146015182
-77.2282979970467,38.8828101669474,Dunn Loring Metro,classic,48ca5477-32a2-485d-961d-5371f2d1d5e1,,2023/12/01 10:50:27+00,14,0,5,2,0,YES,YES,YES,YES,https://dc.lft.to/lastmile_qr_scan,https://dc.lft.to/lastmile_qr_scan,NO,NO,19,"KEY,CREDITCARD",104,DCA-CABI,,38.8828,-77.2283,2023/12/01 10:52:27+00,146015183
-77.0387197912638,38.9956846022418,East West Hwy & 16th St,classic,08261b89-1f3f-11e7-bf6b-3863bb334450,,2023/12/01 10:51:01+00,18,0,1,0,0,YES,YES,YES,YES,https://dc.lft.to/lastmile_qr_scan,https://dc.lft.to/lastmile_qr_scan,NO,NO,19,"KEY,CREDITCARD",44,DCA-CABI,,38.995681,-77.038721,2023/12/01 10:52:27+00,146015184
-76.976903144887,38.8896071317799,19th & East Capitol St SE,classic,08247dd0-1f3f-11e7-bf6b-3863bb334450,,2023/12/01 10:50:28+00,11,0,4,3,0,YES,YES,YES,YES,https://dc.lft.to/lastmile_qr_scan,https://dc.lft.to/lastmile_qr_scan,NO,NO,15,"KEY,CREDITCARD",42,DCA-CABI,,38.8896,-76.9769,2023/12/01 10:52:27+00,146015185
-77.2156313205246,38.9285067059609,Jones Branch Drive & Scotts Crossing Rd,classic,b6ea8d82-3226-4aef-a1d2-78076110e718,,2023/12/01 10:51:17+00,2,0,9,2,0,YES,YES,YES,YES,https://dc.lft.to/lastmile_qr_scan,https://dc.lft.to/lastmile_qr_scan,NO,NO,11,"KEY,CREDITCARD",104,DCA-CABI,,38.928502,-77.215624,2023/12/01 10:52:27+00,146015186
-76.9352498745353,38.8729799941006,Ridge Rd & Southern Ave SE,classic,5d8d5182-ea42-49ec-8cae-8891759f5751,,2023/12/01 10:50:59+00,12,0,3,0,0,YES,YES,YES,YES,https://dc.lft.to/lastmile_qr_scan,https://dc.lft.to/lastmile_qr_scan,NO,NO,15,"KEY,CREDITCARD",42,DCA-CABI,,38.872976,-76.935246,2023/12/01 10:52:27+00,146015187
-77.0177049055071,38.8811221752756,4th & G St SW,classic,3f177fa3-6267-4138-82b3-6b528d71d3b2,,2023/12/01 10:51:24+00,12,0,8,0,0,YES,YES,YES,YES,https://dc.lft.to/lastmile_qr_scan,https://dc.lft.to/lastmile_qr_scan,NO,NO,19,"KEY,CREDITCARD",42,DCA-CABI,,38.881117,-77.017699,2023/12/01 10:52:27+00,146015188
-77.2820811384614,38.8666666327662,Beech Dr at Draper Dr Park,classic,1871684492868499562,,2023/12/01 10:50:32+00,7,0,5,2,0,YES,YES,YES,YES,https://dc.lft.to/lastmile_qr_scan,https://dc.lft.to/lastmile_qr_scan,NO,NO,12,"KEY,CREDITCARD",,DCA-CABI,,38.866659,-77.282077,2023/12/01 10:52:27+00,146015189
-77.1413762389982,39.0763364016162,Fleet St & Ritchie Pkwy,classic,0825b42a-1f3f-11e7-bf6b-3863bb334450,,2023/12/01 10:50:38+00,4,0,11,0,0,YES,YES,YES,YES,https://dc.lft.to/lastmile_qr_scan,https://dc.lft.to/lastmile_qr_scan,NO,NO,15,"KEY,CREDITCARD",43,DCA-CABI,,39.076331,-77.141378,2023/12/01 10:52:27+00,146015190
-77.1050230447681,38.8522583653998,S George Mason Dr & S Four Mile Run Dr,classic,082566d7-1f3f-11e7-bf6b-3863bb334450,,2023/12/01 10:50:37+00,4,0,6,0,1,YES,YES,YES,YES,https://dc.lft.to/lastmile_qr_scan,https://dc.lft.to/lastmile_qr_scan,NO,NO,11,"KEY,CREDITCARD",41,DCA-CABI,,38.852248,-77.105022,2023/12/01 10:52:27+00,146015191
-77.0727577332246,38.9348897103584,Wisconsin Ave & Newark St NW,classic,0824973c-1f3f-11e7-bf6b-3863bb334450,,2023/12/01 10:50:34+00,15,0,4,0,0,YES,YES,YES,YES,https://dc.lft.to/lastmile_qr_scan,https://dc.lft.to/lastmile_qr_scan,NO,NO,19,"KEY,CREDITCARD",42,DCA-CABI,,38.934881,-77.072755,2023/12/01 10:52:27+00,146015192
-77.0119922495213,38.9038240000534,1st & L St NW,classic,314fc12d-7275-4936-a245-a1febd3c95df,,2023/12/01 10:50:33+00,7,0,11,2,1,YES,YES,YES,YES,https://dc.lft.to/lastmile_qr_scan,https://dc.lft.to/lastmile_qr_scan,NO,NO,19,"KEY,CREDITCARD",42,DCA-CABI,,38.903819,-77.011987,2023/12/01 10:52:27+00,146015193
-76.9983537521342,38.8999780356464,6th & H St NE,classic,0824bc70-1f3f-11e7-bf6b-3863bb334450,,2023/12/01 10:50:34+00,9,1,11,1,2,YES,YES,YES,YES,https://dc.lft.to/lastmile_qr_scan,https://dc.lft.to/lastmile_qr_scan,NO,NO,23,"KEY,CREDITCARD",42,DCA-CABI,,38.899972,-76.998347,2023/12/01 10:52:27+00,146015194
-76.971019813343,38.8730664156896,Pennsylvania & Minnesota Ave SE,classic,082498ac-1f3f-11e7-bf6b-3863bb334450,,2023/12/01 10:51:16+00,9,0,2,0,0,YES,YES,YES,YES,https://dc.lft.to/lastmile_qr_scan,https://dc.lft.to/lastmile_qr_scan,NO,NO,11,"KEY,CREDITCARD",42,DCA-CABI,,38.873057,-76.971015,2023/12/01 10:52:27+00,146015195
-77.0703350228633,38.9225858345038,36th & Calvert St NW / Glover Park,classic,0824e189-1f3f-11e7-bf6b-3863bb334450,,2023/12/01 10:50:47+00,12,0,1,1,1,YES,YES,YES,YES,https://dc.lft.to/lastmile_qr_scan,https://dc.lft.to/lastmile_qr_scan,NO,NO,15,"KEY,CREDITCARD",42,DCA-CABI,,38.922581,-77.070334,2023/12/01 10:52:27+00,146015196
-77.0282472420672,38.9313326459188,11th & Park Rd NW,classic,1e19ca16-ec12-48b9-bbbe-fe878745bb23,,2023/12/01 10:50:37+00,18,0,1,0,0,YES,YES,YES,YES,https://dc.lft.to/lastmile_qr_scan,https://dc.lft.to/lastmile_qr_scan,NO,NO,19,"KEY,CREDITCARD",42,DCA-CABI,,38.931322,-77.028247,2023/12/01 10:52:27+00,146015197
-77.0871682131473,38.938744413431,Ward Circle / American University,classic,082496d9-1f3f-11e7-bf6b-3863bb334450,,2023/12/01 10:51:19+00,8,0,7,1,0,YES,YES,YES,YES,https://dc.lft.to/lastmile_qr_scan,https://dc.lft.to/lastmile_qr_scan,NO,NO,15,"KEY,CREDITCARD",42,DCA-CABI,,38.938736,-77.087171,2023/12/01 10:52:27+00,146015198
-76.9834078786338,38.8733571015349,Anacostia Park,classic,5fdaa766-383e-4a92-b1bd-0e71138c6844,,2023/12/01 10:50:41+00,14,0,5,0,0,YES,YES,YES,YES,https://dc.lft.to/lastmile_qr_scan,https://dc.lft.to/lastmile_qr_scan,NO,NO,19,"KEY,CREDITCARD",42,DCA-CABI,,38.87335,-76.9834,2023/12/01 10:52:27+00,146015199
-76.937354598547,38.9695864342458,Baltimore Ave & Van Buren St / Riverdale Park Station,classic,3c8cebaf-4155-47d8-8272-9d65831f33b8,,2023/12/01 10:50:39+00,7,0,10,1,0,YES,YES,YES,YES,https://dc.lft.to/lastmile_qr_scan,https://dc.lft.to/lastmile_qr_scan,NO,NO,17,"KEY,CREDITCARD",133,DCA-CABI,,38.969581,-76.937349,2023/12/01 10:52:27+00,146015200
-76.9776855016263,38.8573752206,Fort Stanton Rec Center,classic,7641069c-42a6-4e3e-9769-7df51da6978d,,2023/12/01 10:50:39+00,13,0,6,0,0,YES,YES,YES,YES,https://dc.lft.to/lastmile_qr_scan,https://dc.lft.to/lastmile_qr_scan,NO,NO,19,"KEY,CREDITCARD",42,DCA-CABI,,38.857369,-76.977688,2023/12/01 10:52:27+00,146015201
-77.0021121529908,38.9070766114955,3rd & N St NE,classic,197e33c5-30cf-4007-b7a8-b9b1dfd064e3,,2023/12/01 10:50:43+00,10,0,0,0,1,YES,YES,YES,YES,https://dc.lft.to/lastmile_qr_scan,https://dc.lft.to/lastmile_qr_scan,NO,NO,11,"KEY,CREDITCARD",42,DCA-CABI,,38.907073,-77.002109,2023/12/01 10:52:27+00,146015202
-77.3393958910249,38.9466169000994,Wiehle-Reston Metro South,classic,08263b08-1f3f-11e7-bf6b-3863bb334450,,2023/12/01 10:50:41+00,0,0,19,2,0,YES,YES,YES,YES,https://dc.lft.to/lastmile_qr_scan,https://dc.lft.to/lastmile_qr_scan,NO,NO,19,"KEY,CREDITCARD",104,DCA-CABI,,38.946608,-77.339391,2023/12/01 10:52:27+00,146015203
-77.115436457581,39.0510341591705,Rockville Pike & Rose Ave,classic,b053927b-0761-40d0-a3ff-8a63fa1c7141,,2023/12/01 10:50:49+00,3,0,12,1,0,YES,YES,YES,YES,https://dc.lft.to/lastmile_qr_scan,https://dc.lft.to/lastmile_qr_scan,NO,NO,15,"KEY,CREDITCARD",43,DCA-CABI,,39.051022,-77.115438,2023/12/01 10:52:27+00,146015204
-77.0492321926117,38.8564300951471,Crystal Dr & 20th St S,classic,08246c35-1f3f-11e7-bf6b-3863bb334450,,2023/12/01 10:50:49+00,12,0,3,0,2,YES,YES,YES,YES,https://dc.lft.to/lastmile_qr_scan,https://dc.lft.to/lastmile_qr_scan,NO,NO,17,"KEY,CREDITCARD",41,DCA-CABI,,38.856425,-77.049232,2023/12/01 10:52:27+00,146015205
-77.3540652735243,38.9388081866269,Olde Crafts Dr and Cartwright Pl,classic,bc4fc3e2-2050-4571-851b-47f062319f95,,2023/12/01 10:50:47+00,3,0,9,1,0,YES,YES,YES,YES,https://dc.lft.to/lastmile_qr_scan,https://dc.lft.to/lastmile_qr_scan,NO,NO,12,"KEY,CREDITCARD",104,DCA-CABI,,38.938797,-77.354067,2023/12/01 10:52:27+00,146015206
-77.0638968778675,38.9445607922833,Van Ness Metro / UDC,classic,082495aa-1f3f-11e7-bf6b-3863bb334450,,2023/12/01 10:50:55+00,0,0,15,2,0,YES,YES,YES,YES,https://dc.lft.to/lastmile_qr_scan,https://dc.lft.to/lastmile_qr_scan,NO,NO,15,"KEY,CREDITCARD",42,DCA-CABI,,38.944551,-77.063896,2023/12/01 10:52:27+00,146015207
-77.0515191612255,38.848474659934,Crystal Dr & 27th St S,classic,08247052-1f3f-11e7-bf6b-3863bb334450,,2023/12/01 10:51:24+00,2,0,10,2,0,YES,YES,YES,YES,https://dc.lft.to/lastmile_qr_scan,https://dc.lft.to/lastmile_qr_scan,NO,NO,12,"KEY,CREDITCARD",41,DCA-CABI,,38.848466,-77.051514,2023/12/01 10:52:27+00,146015208
-77.027331612146,38.9496737483064,Georgia Ave & Emerson St NW,classic,082548ce-1f3f-11e7-bf6b-3863bb334450,,2023/12/01 10:50:50+00,8,0,11,0,0,YES,YES,YES,YES,https://dc.lft.to/lastmile_qr_scan,https://dc.lft.to/lastmile_qr_scan,NO,NO,19,"KEY,CREDITCARD",42,DCA-CABI,,38.949662,-77.027333,2023/12/01 10:52:27+00,146015209
-77.0772017706082,38.8635676402324,Columbia Pike & S Scott St/12th St S,classic,8d485a67-09d5-4550-8438-f1fa2f463bc2,,2023/12/01 10:50:56+00,6,0,5,0,0,YES,YES,YES,YES,https://dc.lft.to/lastmile_qr_scan,https://dc.lft.to/lastmile_qr_scan,NO,NO,11,"KEY,CREDITCARD",41,DCA-CABI,,38.863556,-77.077201,2023/12/01 10:52:27+00,146015210
-77.0022405601344,38.9574690756916,3rd St & Riggs Rd NE,classic,08264325-1f3f-11e7-bf6b-3863bb334450,,2023/12/01 10:50:59+00,9,0,5,0,1,YES,YES,YES,YES,https://dc.lft.to/lastmile_qr_scan,https://dc.lft.to/lastmile_qr_scan,NO,NO,15,"KEY,CREDITCARD",42,DCA-CABI,,38.957463,-77.002239,2023/12/01 10:52:27+00,146015211
-77.0162612290938,38.9689444803658,3rd & Underwood St NW,classic,0826540e-1f3f-11e7-bf6b-3863bb334450,,2023/12/01 10:50:33+00,11,0,8,0,0,YES,YES,YES,YES,https://dc.lft.to/lastmile_qr_scan,https://dc.lft.to/lastmile_qr_scan,NO,NO,19,"KEY,CREDITCARD",42,DCA-CABI,,38.968935,-77.016263,2023/12/01 10:52:27+00,146015212
-77.0515265622203,38.9066058417704,24th & N St NW,classic,08253e02-1f3f-11e7-bf6b-3863bb334450,,2023/12/01 10:51:02+00,0,0,15,0,0,YES,YES,YES,YES,https://dc.lft.to/lastmile_qr_scan,https://dc.lft.to/lastmile_qr_scan,NO,NO,15,"KEY,CREDITCARD",42,DCA-CABI,,38.9066,-77.05152,2023/12/01 10:52:27+00,146015213
-77.0530999450978,38.8209440940769,Monroe Ave & Leslie Ave,classic,0825f9b6-1f3f-11e7-bf6b-3863bb334450,,2023/12/01 10:51:04+00,6,0,9,1,0,YES,YES,YES,YES,https://dc.lft.to/lastmile_qr_scan,https://dc.lft.to/lastmile_qr_scan,NO,NO,15,"KEY,CREDITCARD",40,DCA-CABI,,38.820932,-77.053096,2023/12/01 10:52:27+00,146015214
-77.0181415360202,38.9212363281369,4th & College St NW,classic,60b9672e-7668-431b-801b-affaccb680bb,,2023/12/01 10:51:05+00,3,0,12,1,0,YES,YES,YES,YES,https://dc.lft.to/lastmile_qr_scan,https://dc.lft.to/lastmile_qr_scan,NO,NO,15,"KEY,CREDITCARD",42,DCA-CABI,,38.921233,-77.018135,2023/12/01 10:52:27+00,146015215
-76.9852415706573,38.8666190587598,14th St & Marion Barry Ave SE,classic,08252874-1f3f-11e7-bf6b-3863bb334450,,2023/12/01 10:51:04+00,6,0,9,0,0,YES,YES,YES,YES,https://dc.lft.to/lastmile_qr_scan,https://dc.lft.to/lastmile_qr_scan,NO,NO,15,"KEY,CREDITCARD",42,DCA-CABI,,38.866611,-76.985238,2023/12/01 10:52:27+00,146015216
